SummitCode,AssociationName,RegionName,SummitName,AltM,AltFt,GridRef1,GridRef2,Longitude,Latitude,Points,BonusPoints,ValidFrom,ValidTo,ActivationCount,ActivationDate,ActivationCall
W0C/FR-001,USA - Colorado,CO-Front Range,Mount Lincoln,4354,14286,-106.1112,39.3514,-106.1112,39.3514,10,3,01/05/2010,31/12/2099,30,04/08/2025,W0RTA
W0C/FR-002,USA - Colorado,CO-Front Range,Grays Peak,4349,14270,-105.8175,39.6338,-105.8175,39.6338,10,3,01/05/2010,31/12/2099,29,01/08/2025,WV0X
W0C/FR-003,USA - Colorado,CO-Front Range,Mount Blue Sky,4348,14264,-105.6434,39.5884,-105.6434,39.5884,10,3,01/05/2010,31/12/2099,154,01/09/2025,W0SKY
W0C/FR-004,USA - Colorado,CO-Front Range,Pikes Peak,4301,14110,-105.0444,38.8406,-105.0444,38.8406,10,3,01/05/2010,31/12/2099,258,27/09/2025,KM4CFT
W0C/FR-005,USA - Colorado,CO-Front Range,Mount Silverheels,4213,13822,-106.0053,39.3394,-106.0053,39.3394,10,3,01/05/2010,31/12/2099,12,06/08/2025,K5SJC
W0C/FR-006,USA - Colorado,CO-Front Range,Bard Peak,4158,13641,-105.8042,39.7203,-105.8042,39.7203,10,3,01/05/2010,31/12/2099,24,12/07/2025,WV0X
W0C/FR-007,USA - Colorado,CO-Front Range,Rosalie Peak,4138,13575,-105.6065,39.5561,-105.6065,39.5561,10,3,01/05/2010,31/12/2099,42,22/06/2025,W0SKY
W0C/FR-008,USA - Colorado,CO-Front Range,Hagues Peak,4133,13560,-105.6463,40.4845,-105.6463,40.4845,10,3,01/05/2010,31/12/2099,5,05/08/2023,N0BCB
W0C/FR-009,USA - Colorado,CO-Front Range,Ypsilon Mountain,4119,13514,-105.6812,40.4572,-105.6812,40.4572,10,3,01/05/2010,31/12/2099,32,20/09/2025,K0MOS
W0C/FR-010,USA - Colorado,CO-Front Range,Fairchild Mountain,4115,13502,-105.6643,40.4685,-105.6643,40.4685,10,3,01/05/2010,31/12/2099,6,05/08/2023,N0BCB
W0C/FR-011,USA - Colorado,CO-Front Range,Apache Peak,4097,13441,-105.6509,40.0584,-105.6509,40.0584,8,3,01/05/2010,31/12/2099,2,25/08/2017,KX0R
W0C/FR-012,USA - Colorado,CO-Front Range,Mount Alice,4057,13310,-105.6635,40.2392,-105.6635,40.2392,8,3,01/05/2010,31/12/2099,2,06/09/2021,K0MOS
W0C/FR-013,USA - Colorado,CO-Front Range,Mount Audubon,4030,13223,-105.6162,40.099,-105.6162,40.099,8,3,01/05/2010,31/12/2099,16,26/09/2022,K6ARK
W0C/FR-014,USA - Colorado,CO-Front Range,Copeland Mountain,4016,13176,-105.6464,40.182,-105.6464,40.182,8,3,01/05/2010,31/12/2099,3,07/07/2025,N0BAA
W0C/FR-015,USA - Colorado,CO-Front Range,Mount Jasper,3939,12923,-105.6831,39.9947,-105.6831,39.9947,8,3,01/05/2010,31/12/2099,3,16/07/2023,N0QLR
W0C/FR-016,USA - Colorado,CO-Front Range,Mount Ida,3932,12900,-105.7792,40.3717,-105.7792,40.3717,8,3,01/05/2010,31/12/2099,22,06/09/2024,K0MOS
W0C/FR-017,USA - Colorado,CO-Front Range,Mount Logan,3923,12870,-105.6314,39.4958,-105.6314,39.4958,8,3,01/05/2010,31/12/2099,6,10/08/2022,N0IPA
W0C/FR-018,USA - Colorado,CO-Front Range,Hallett Peak,3875,12713,-105.6861,40.3028,-105.6861,40.3028,8,3,01/05/2010,31/12/2099,18,03/05/2025,KF0QGT
W0C/FR-019,USA - Colorado,CO-Front Range,Sundance Mountain,3800,12466,-105.7106,40.4083,-105.7106,40.4083,6,3,01/05/2010,31/12/2099,65,12/09/2025,WV0X
W0C/FR-020,USA - Colorado,CO-Front Range,Kataka Mountain,3792,12441,-105.6609,39.5293,-105.6609,39.5293,6,3,01/05/2010,31/12/2099,4,19/07/2025,W0XC
W0C/FR-021,USA - Colorado,CO-Front Range,Bison Peak,3789,12431,-105.4978,39.2385,-105.4978,39.2385,6,3,01/05/2010,31/12/2099,5,12/08/2022,KX0R
W0C/FR-022,USA - Colorado,CO-Front Range,Peak X,3788,12429,-105.6053,39.368,-105.6053,39.368,6,3,01/05/2010,31/12/2099,25,05/10/2025,K8QWR
W0C/FR-023,USA - Colorado,CO-Front Range,Almagre Mountain,3769,12367,-104.9935,38.7913,-104.9935,38.7913,6,3,01/05/2010,31/12/2099,28,02/08/2025,KF0ULF
W0C/FR-024,USA - Colorado,CO-Front Range,Mount Evans,3760,12335,-105.6937,39.5508,-105.6937,39.5508,8,3,01/05/2010,31/01/2013,0,,
W0C/FR-025,USA - Colorado,CO-Front Range,McCurdy Mountain,3709,12168,-105.4683,39.2194,-105.4683,39.2194,6,3,01/05/2010,31/12/2099,2,08/10/2020,KX0R
W0C/FR-026,USA - Colorado,CO-Front Range,Saint Vrain Mountain,3707,12162,-105.5856,40.161,-105.5856,40.161,6,3,01/05/2010,31/12/2099,37,26/09/2025,K0MOS
W0C/FR-027,USA - Colorado,CO-Front Range,Cameron Peak,3696,12127,-105.8947,40.6247,-105.8947,40.6247,6,3,01/05/2010,31/12/2099,1,13/10/2013,K0MOS
W0C/FR-028,USA - Colorado,CO-Front Range,Windy Mountain,3843,12608,-106.402,37.4661,-106.402,37.4661,8,3,01/05/2010,31/12/2099,2,29/08/2021,KF0BGL
W0C/FR-029,USA - Colorado,CO-Front Range,North Tarryall Peak,3628,11902,-105.6106,39.3119,-105.6106,39.3119,6,3,01/05/2010,31/12/2099,25,10/09/2025,WA2USA/P
W0C/FR-030,USA - Colorado,CO-Front Range,Chief Mountain,3569,11709,-105.5228,39.6757,-105.5228,39.6757,6,3,01/05/2010,31/12/2099,203,17/09/2025,WU0A
W0C/FR-031,USA - Colorado,CO-Front Range,Black Mountain,3552,11654,-105.6873,38.7184,-105.6873,38.7184,6,3,01/05/2010,31/12/2099,32,26/09/2025,KD8EQA
W0C/FR-032,USA - Colorado,CO-Front Range,Buffalo Peak,3532,11589,-105.3681,39.2755,-105.3681,39.2755,6,3,01/05/2010,31/12/2099,4,10/10/2020,KX0R
W0C/FR-033,USA - Colorado,CO-Front Range,Saxon Mountain,3519,11546,-105.6695,39.7233,-105.6695,39.7233,6,3,01/05/2010,31/12/2099,9,19/09/2025,KG0AT
W0C/FR-034,USA - Colorado,CO-Front Range,Mount Rosa,3505,11499,-104.948,38.7541,-104.948,38.7541,6,3,01/05/2010,31/12/2099,55,31/07/2025,NI4K
W0C/FR-035,USA - Colorado,CO-Front Range,Meridian Hill,3502,11490,-105.4864,39.5564,-105.4864,39.5564,6,3,01/05/2010,31/12/2099,8,16/06/2024,W0SKY
W0C/FR-036,USA - Colorado,CO-Front Range,Bighorn Mountain,3494,11463,-105.62,40.4296,-105.62,40.4296,6,3,01/05/2010,31/12/2099,26,28/09/2025,K0MOS
W0C/FR-037,USA - Colorado,CO-Front Range,East Twin Sisters Peaks,3483,11428,-105.5174,40.2885,-105.5174,40.2885,6,3,01/05/2010,31/12/2099,77,12/08/2025,KX0R
W0C/FR-038,USA - Colorado,CO-Front Range,South Tarryall Peak,3416,11206,-105.441,39.1549,-105.441,39.1549,6,3,01/05/2010,31/12/2099,13,05/10/2025,K5SJC
W0C/FR-039,USA - Colorado,CO-Front Range,Estes Cone,3355,11006,-105.5672,40.2951,-105.5672,40.2951,6,3,01/05/2010,31/12/2099,59,19/06/2025,KX0R
W0C/FR-040,USA - Colorado,CO-Front Range,Mount Garfield,3335,10940,-104.9475,38.8076,-104.9475,38.8076,6,3,01/05/2010,31/12/2099,10,12/09/2024,KF0RIG
W0C/FR-041,USA - Colorado,CO-Front Range,Dicks Peak,3268,10722,-105.6405,38.7954,-105.6405,38.7954,6,3,01/05/2010,31/12/2099,60,26/09/2025,WA2USA/P
W0C/FR-042,USA - Colorado,CO-Front Range,Santa Fe Mountain,3212,10537,-105.4715,39.7105,-105.4715,39.7105,6,3,01/05/2010,31/12/2099,49,01/08/2025,KM4CFT
W0C/FR-044,USA - Colorado,CO-Front Range,Green Mountain,3176,10421,-105.3001,39.3052,-105.3001,39.3052,4,3,01/05/2010,31/12/2099,16,10/09/2025,KX0R
W0C/FR-045,USA - Colorado,CO-Front Range,Mount Pisgah,3167,10390,-105.218,38.7558,-105.218,38.7558,4,3,01/05/2010,31/12/2099,16,04/11/2023,K0ATV
W0C/FR-046,USA - Colorado,CO-Front Range,West White Pine Mountain,3141,10305,-105.4717,40.6052,-105.4717,40.6052,4,3,01/05/2010,31/12/2099,16,14/06/2025,N0DET
W0C/FR-047,USA - Colorado,CO-Front Range,Mount Judge,3140,10301,-105.4563,39.6673,-105.4563,39.6673,4,3,01/05/2010,31/12/2099,67,08/08/2025,N1SMB
W0C/FR-048,USA - Colorado,CO-Front Range,Thunder Butte,2998,9836,-105.1975,39.1717,-105.1975,39.1717,4,3,01/05/2010,31/12/2099,30,01/08/2025,KD8EQA
W0C/FR-049,USA - Colorado,CO-Front Range,Centralia Mountain,2986,9795,-105.3705,39.8284,-105.3705,39.8284,4,3,01/05/2010,31/12/2099,18,09/06/2025,KX0R
W0C/FR-050,USA - Colorado,CO-Front Range,Lily Mountain,2983,9786,-105.5411,40.3191,-105.5411,40.3191,4,3,01/05/2010,31/12/2099,69,02/07/2025,WU0A
W0C/FR-051,USA - Colorado,CO-Front Range,Devils Head,2971,9748,-105.1013,39.2603,-105.1013,39.2603,4,3,01/05/2010,31/12/2099,87,12/08/2025,W0RTA
W0C/FR-052,USA - Colorado,CO-Front Range,Ormes Peak,2965,9727,-104.935,38.9506,-104.935,38.9506,4,3,01/05/2010,31/12/2099,97,27/09/2025,W5RJD
W0C/FR-053,USA - Colorado,CO-Front Range,Cheyenne Mountain,2915,9565,-104.8807,38.7371,-104.8807,38.7371,4,3,01/05/2010,31/12/2099,49,16/04/2025,N4PW
W0C/FR-054,USA - Colorado,CO-Front Range,Douglas Mountain,2911,9550,-105.6761,39.7518,-105.6761,39.7518,4,3,01/05/2010,31/12/2099,65,09/04/2025,W7UM
W0C/FR-055,USA - Colorado,CO-Front Range,Kenny Mountain,2832,9290,-105.417,40.2916,-105.417,40.2916,4,3,01/05/2010,31/12/2099,24,19/06/2025,K0MOS
W0C/FR-056,USA - Colorado,CO-Front Range,Panorama Peak,2830,9284,-105.4087,40.352,-105.4087,40.352,4,3,01/05/2010,31/12/2099,63,18/08/2025,W0RTA
W0C/FR-057,USA - Colorado,CO-Front Range,Crosier Mountain,2819,9250,-105.4248,40.4322,-105.4248,40.4322,4,3,01/05/2010,31/12/2099,45,28/03/2025,N0MRK
W0C/FR-058,USA - Colorado,CO-Front Range,Emerald Mountain,2815,9237,-105.5872,40.3307,-105.5872,40.3307,4,3,01/05/2010,31/12/2099,85,15/08/2025,WU0A
W0C/FR-059,USA - Colorado,CO-Front Range,Little Scraggy Peak,2802,9192,-105.2754,39.3148,-105.2754,39.3148,4,3,01/05/2010,31/12/2099,69,01/09/2025,KF0RDY
W0C/FR-060,USA - Colorado,CO-Front Range,Berrian Mountain,2788,9147,-105.2923,39.5549,-105.2923,39.5549,4,3,01/05/2010,31/12/2099,134,16/08/2025,KG0AT
W0C/FR-061,USA - Colorado,CO-Front Range,Taylor Mountain,2784,9134,-105.4678,40.1957,-105.4678,40.1957,4,3,01/05/2010,31/12/2099,107,31/08/2025,KD8EQA
W0C/FR-062,USA - Colorado,CO-Front Range,Mount Bailey,2770,9089,-105.4597,39.4152,-105.4597,39.4152,4,3,01/05/2010,31/12/2099,80,21/02/2025,N3BEN
W0C/FR-063,USA - Colorado,CO-Front Range,Mount Herman,2762,9063,-104.9264,39.0818,-104.9264,39.0818,4,3,01/05/2010,31/12/2099,575,27/09/2025,W5RJD
W0C/FR-064,USA - Colorado,CO-Front Range,West Crosier,2749,9020,-105.4384,40.4291,-105.4384,40.4291,4,3,01/05/2010,31/12/2099,39,26/04/2025,KI0KN
W0C/FR-065,USA - Colorado,CO-Front Range,Doublehead Mountain,2737,8980,-105.258,39.562,-105.258,39.562,2,3,01/05/2010,31/12/2099,0,,
W0C/FR-066,USA - Colorado,CO-Front Range,Tappan Mountain,2729,8954,-105.3908,39.0732,-105.3908,39.0732,2,0,01/05/2010,31/12/2099,49,14/08/2025,KF0RIG
W0C/FR-067,USA - Colorado,CO-Front Range,Crescent Mountain,2726,8945,-105.3136,39.893,-105.3136,39.893,2,0,01/05/2010,31/12/2099,0,,
W0C/FR-068,USA - Colorado,CO-Front Range,Eagle Cliff Mountain,2715,8906,-105.5757,40.3585,-105.5757,40.3585,2,0,01/05/2010,31/12/2099,38,08/03/2025,KX0R
W0C/FR-069,USA - Colorado,CO-Front Range,Prospect Mountain,2713,8900,-105.5219,40.3596,-105.5219,40.3596,2,0,01/05/2010,31/12/2099,57,22/05/2025,K7MAS/P
W0C/FR-070,USA - Colorado,CO-Front Range,Castle Mountain,2693,8834,-105.5502,40.3895,-105.5502,40.3895,2,0,01/05/2010,31/12/2099,28,19/06/2025,AA0HC
W0C/FR-071,USA - Colorado,CO-Front Range,Long Scraggy Peak,2686,8812,-105.2019,39.3493,-105.2019,39.3493,2,0,01/05/2010,31/12/2099,13,30/11/2024,N0BAA
W0C/FR-072,USA - Colorado,CO-Front Range,Mount Olympus,2685,8808,-105.4617,40.3748,-105.4617,40.3748,2,0,01/05/2010,31/12/2099,34,25/09/2025,N0DET
W0C/FR-073,USA - Colorado,CO-Front Range,Redskin Mountain,2677,8783,-105.3639,39.3587,-105.3639,39.3587,2,0,01/05/2010,31/12/2099,29,16/05/2025,KX0R
W0C/FR-074,USA - Colorado,CO-Front Range,Bear Mountain,2630,8629,-105.2902,39.6229,-105.2902,39.6229,2,0,01/05/2010,31/12/2099,2,03/04/2023,K0ATV
W0C/FR-075,USA - Colorado,CO-Front Range,South Boulder Peak,2606,8549,-105.2992,39.9537,-105.2992,39.9537,2,0,01/05/2010,31/12/2099,39,27/04/2025,W4LZZ
W0C/FR-076,USA - Colorado,CO-Front Range,Evergreen Mountain,2602,8536,-105.3609,39.6104,-105.3609,39.6104,2,0,01/05/2010,31/12/2099,120,05/10/2025,WS0UP
W0C/FR-077,USA - Colorado,CO-Front Range,Sugarloaf Peak,2591,8501,-105.3057,39.2493,-105.3057,39.2493,2,0,01/05/2010,31/12/2099,16,21/07/2025,AA0HC
W0C/FR-078,USA - Colorado,CO-Front Range,Banner Peak,2591,8500,-105.2958,39.4192,-105.2958,39.4192,2,0,01/05/2010,31/12/2099,0,,
W0C/FR-079,USA - Colorado,CO-Front Range,Mount Ethel,2582,8471,-105.3528,40.6354,-105.3528,40.6354,2,0,01/05/2010,31/12/2099,1,21/08/2021,K0HAK
W0C/FR-080,USA - Colorado,CO-Front Range,Sheep Mountain,2576,8450,-105.3108,40.4121,-105.3108,40.4121,2,0,01/05/2010,31/12/2099,18,21/09/2025,K0TTW
W0C/FR-081,USA - Colorado,CO-Front Range,Button Rock Mountain,2576,8450,-105.3853,40.2534,-105.3853,40.2534,2,0,01/05/2010,31/12/2099,40,08/04/2025,N1SMB
W0C/FR-082,USA - Colorado,CO-Front Range,Triangle Mountain,2565,8415,-105.4513,40.4648,-105.4513,40.4648,2,0,01/05/2010,31/12/2099,27,28/01/2025,KX0R
W0C/FR-083,USA - Colorado,CO-Front Range,Eldorado Mountain,2542,8340,-105.2926,39.9129,-105.2926,39.9129,2,0,01/05/2010,31/12/2099,27,21/11/2024,N0IPA
W0C/FR-084,USA - Colorado,CO-Front Range,Palisade Mountain,2519,8264,-105.3108,40.4403,-105.3108,40.4403,2,0,01/05/2010,31/12/2099,25,09/06/2025,N1SMB
W0C/FR-085,USA - Colorado,CO-Front Range,Green Mountain,2482,8144,-105.3014,39.9821,-105.3014,39.9821,2,0,01/05/2010,31/12/2099,154,30/09/2025,W7UM
W0C/FR-086,USA - Colorado,CO-Front Range,Coffintop Mountain,2457,8060,-105.3563,40.1976,-105.3563,40.1976,2,0,01/05/2010,31/12/2099,19,10/05/2025,KX0R
W0C/FR-087,USA - Colorado,CO-Front Range,Bennett Mountain,2452,8045,-105.1245,39.3861,-105.1245,39.3861,2,0,01/05/2010,31/12/2099,103,01/09/2025,N1SMB
W0C/FR-088,USA - Colorado,CO-Front Range,Mount McConnel,2444,8020,-105.4645,40.672,-105.4645,40.672,2,0,01/05/2010,31/12/2099,37,26/08/2025,KX0R
W0C/FR-089,USA - Colorado,CO-Front Range,Cheesman Mountain,2422,7946,-105.2707,39.2338,-105.2707,39.2338,1,0,01/05/2010,31/12/2099,17,27/09/2025,KF0FOE
W0C/FR-090,USA - Colorado,CO-Front Range,Christ Mountain,2414,7919,-105.2847,40.5753,-105.2847,40.5753,1,0,01/05/2010,31/12/2099,2,07/04/2023,KD8EQA
W0C/FR-091,USA - Colorado,CO-Front Range,Blue Mountain,2404,7888,-105.281,40.3353,-105.281,40.3353,1,0,01/05/2010,31/12/2099,0,,
W0C/FR-092,USA - Colorado,CO-Front Range,Mount Morrison,2402,7881,-105.2198,39.6691,-105.2198,39.6691,1,0,01/05/2010,31/12/2099,38,30/04/2025,KX0R
W0C/FR-093,USA - Colorado,CO-Front Range,Bald Mountain,2402,7881,-104.8489,39.1377,-104.8489,39.1377,1,0,01/05/2010,31/12/2099,4,11/11/2011,KD0PNK
W0C/FR-094,USA - Colorado,CO-Front Range,North Greyrock,2341,7681,-105.3008,40.7274,-105.3008,40.7274,1,0,01/05/2010,31/12/2099,11,12/12/2024,KX0R
W0C/FR-095,USA - Colorado,CO-Front Range,Greyrock Mountain,2320,7613,-105.2925,40.7158,-105.2925,40.7158,1,0,01/05/2010,31/12/2099,26,09/06/2025,KK7QHS
W0C/FR-096,USA - Colorado,CO-Front Range,Rattlesnake Butte,2309,7575,-104.8444,39.1967,-104.8444,39.1967,1,0,01/05/2010,31/12/2099,0,,
W0C/FR-097,USA - Colorado,CO-Front Range,Sheep Mountain,2303,7555,-105.4248,40.682,-105.4248,40.682,1,0,01/05/2010,31/12/2099,17,11/01/2025,AE0IH
W0C/FR-098,USA - Colorado,CO-Front Range,Cook Mountain,2298,7540,-105.4057,40.2153,-105.4057,40.2153,1,0,01/05/2010,31/12/2099,17,08/05/2025,KX0R
W0C/FR-099,USA - Colorado,CO-Front Range,Livermore Mountain,2287,7504,-105.2924,40.757,-105.2924,40.757,1,0,01/05/2010,31/12/2099,1,02/11/2015,KX0R
W0C/FR-101,USA - Colorado,CO-Front Range,Dawson Butte,2280,7481,-104.9378,39.3003,-104.9378,39.3003,1,0,01/05/2010,31/12/2099,5,24/07/2020,W0DFM
W0C/FR-102,USA - Colorado,CO-Front Range,Horsetooth Mountain,2211,7255,-105.1967,40.5395,-105.1967,40.5395,1,0,01/05/2010,31/12/2099,42,29/01/2025,KX0R
W0C/FR-103,USA - Colorado,CO-Front Range,Alexander Mountain,2166,7105,-105.2511,40.4277,-105.2511,40.4277,1,0,01/05/2010,31/12/2099,1,16/02/2013,N0BCB
W0C/FR-104,USA - Colorado,CO-Front Range,Bonner Peak,2117,6944,-105.2045,40.7393,-105.2045,40.7393,1,0,01/05/2010,31/12/2099,0,,
W0C/FR-105,USA - Colorado,CO-Front Range,Timber Mountain,2102,6896,-104.8791,38.568,-104.8791,38.568,1,0,01/05/2010,31/12/2099,2,08/05/2022,KD8EQA
W0C/FR-106,USA - Colorado,CO-Front Range,Milner Mountain,2097,6881,-105.1824,40.4974,-105.1824,40.4974,1,0,01/05/2010,31/12/2099,0,,
W0C/FR-107,USA - Colorado,CO-Front Range,Green Mountain,2089,6855,-105.1779,39.701,-105.1779,39.701,1,0,01/05/2010,31/12/2099,132,13/09/2025,WB0JNR
W0C/FR-108,USA - Colorado,CO-Front Range,Indian Mountain,2009,6591,-105.2506,40.2623,-105.2506,40.2623,1,0,01/05/2010,31/12/2099,0,,
W0C/FR-109,USA - Colorado,CO-Front Range,North Table Mountain,2004,6575,-105.2204,39.7789,-105.2204,39.7789,1,0,01/05/2010,31/12/2099,98,03/08/2025,KM4CFT
W0C/FR-110,USA - Colorado,CO-Front Range,Longs Peak,4345,14255,-105.6152,40.255,-105.6152,40.255,10,3,01/08/2011,31/12/2099,16,15/06/2025,KOBTC
W0C/FR-111,USA - Colorado,CO-Front Range,Chiefs Head Peak,4139,13579,-105.6416,40.2497,-105.6416,40.2497,10,3,01/08/2011,31/12/2099,3,25/09/2021,K0MOS
W0C/FR-112,USA - Colorado,CO-Front Range,North Arapaho Peak,4115,13502,-105.6502,40.0264,-105.6502,40.0264,10,3,01/08/2011,31/12/2099,3,02/09/2022,K0MOS
W0C/FR-113,USA - Colorado,CO-Front Range,Kiowa Peak,4047,13276,-105.6243,40.0478,-105.6243,40.0478,8,3,01/08/2011,31/12/2099,0,,
W0C/FR-114,USA - Colorado,CO-Front Range,Arikaree Peak,4008,13150,-105.6384,40.0467,-105.6384,40.0467,8,3,01/08/2011,31/12/2099,0,,
W0C/FR-115,USA - Colorado,CO-Front Range,Ogalalla Peak,4004,13138,-105.6667,40.17,-105.6667,40.17,8,3,01/08/2011,31/12/2099,1,04/09/2021,K0MOS
W0C/FR-116,USA - Colorado,CO-Front Range,Isolation Peak,3998,13118,-105.6778,40.2024,-105.6778,40.2024,8,3,01/08/2011,31/12/2099,2,28/08/2021,K0MOS
W0C/FR-118,USA - Colorado,CO-Front Range,Stones Peak,3939,12922,-105.7206,40.3544,-105.7206,40.3544,8,3,01/08/2011,31/12/2099,1,30/09/2023,K0MOS
W0C/FR-119,USA - Colorado,CO-Front Range,Comanche Peak Wilderness HP,3876,12716,-105.6847,40.5509,-105.6847,40.5509,8,3,01/08/2011,31/12/2099,1,06/11/2014,AD0KE
W0C/FR-120,USA - Colorado,CO-Front Range,McReynolds Peak,3795,12450,-105.0803,38.8126,-105.0803,38.8126,6,3,01/08/2011,31/12/2099,2,11/05/2022,KN0MAP
W0C/FR-121,USA - Colorado,CO-Front Range,Sheep Mountain,3779,12397,-105.0547,38.7931,-105.0547,38.7931,6,3,01/08/2011,31/12/2099,13,27/09/2025,KG0AT
W0C/FR-122,USA - Colorado,CO-Front Range,Skyscraper Peak,3774,12383,-105.6808,39.9597,-105.6808,39.9597,6,3,01/08/2011,31/12/2099,5,25/10/2024,WV0X
W0C/FR-123,USA - Colorado,CO-Front Range,Trail Ridge,3766,12355,-105.7572,40.4296,-105.7572,40.4296,6,3,01/08/2011,31/12/2099,58,12/09/2025,WV0X
W0C/FR-124,USA - Colorado,CO-Front Range,11859,3615,11859,-105.7253,40.5791,-105.7253,40.5791,6,3,01/08/2011,31/12/2099,1,20/10/2014,AD0KE
W0C/FR-125,USA - Colorado,CO-Front Range,Sheep Mountain,3603,11820,-105.9339,40.682,-105.9339,40.682,6,3,01/08/2011,31/12/2099,1,09/08/2023,K0MOS
W0C/FR-126,USA - Colorado,CO-Front Range,Crown Benchmark,3547,11637,-105.6627,40.6153,-105.6627,40.6153,6,3,01/08/2011,31/12/2099,3,01/06/2025,KF0QGT
W0C/FR-127,USA - Colorado,CO-Front Range,Signal Mountain,3433,11262,-105.5115,40.5255,-105.5115,40.5255,6,3,01/08/2011,31/12/2099,20,03/10/2025,KX0R
W0C/FR-128,USA - Colorado,CO-Front Range,Confluence Peak,3420,11220,-105.7494,40.4994,-105.7494,40.4994,6,3,01/08/2011,31/12/2099,1,31/07/2018,KX0R
W0C/FR-129,USA - Colorado,CO-Front Range,Cow Mountain,3396,11143,-105.0847,38.758,-105.0847,38.758,6,3,01/08/2011,31/12/2099,4,04/02/2018,K7PX
W0C/FR-130,USA - Colorado,CO-Front Range,Killpecker Mountain,3359,11020,-105.716,40.7703,-105.716,40.7703,6,3,01/08/2011,31/12/2099,8,18/08/2025,KX0R
W0C/FR-131,USA - Colorado,CO-Front Range,10980,3347,10980,-105.7789,40.5351,-105.7789,40.5351,6,3,01/08/2011,31/12/2099,2,21/09/2017,KX0R
W0C/FR-132,USA - Colorado,CO-Front Range,Trachyte Knob,3311,10862,-105.1068,38.7733,-105.1068,38.7733,6,3,01/08/2011,31/12/2099,39,27/09/2025,KG0AT
W0C/FR-133,USA - Colorado,CO-Front Range,Big Bull Mountain,3302,10832,-105.1123,38.7153,-105.1123,38.7153,6,3,01/08/2011,31/12/2099,24,27/01/2024,KD8EQA
W0C/FR-134,USA - Colorado,CO-Front Range,Tuckaway Mountain,3298,10820,-104.9712,38.814,-104.9712,38.814,6,3,01/08/2011,31/12/2099,6,15/05/2025,KF0RIG
W0C/FR-135,USA - Colorado,CO-Front Range,Bull Hill,3294,10808,-105.1399,38.7361,-105.1399,38.7361,6,3,01/08/2011,31/12/2099,9,29/08/2016,WA2USA/P
W0C/FR-136,USA - Colorado,CO-Front Range,Rhyolite Mountain,3286,10780,-105.1668,38.7826,-105.1668,38.7826,6,3,01/08/2011,31/12/2099,11,21/10/2023,KD8EQA
W0C/FR-137,USA - Colorado,CO-Front Range,10720,3267,10720,-105.4465,40.5139,-105.4465,40.5139,6,3,01/08/2011,31/12/2099,5,16/09/2019,KX0R
W0C/FR-138,USA - Colorado,CO-Front Range,Cameron Cone,3263,10707,-104.9545,38.8312,-104.9545,38.8312,6,3,01/08/2011,31/12/2099,5,15/08/2025,KD8EQA
W0C/FR-139,USA - Colorado,CO-Front Range,10654,3247,10654,-105.3776,39.2206,-105.3776,39.2206,6,3,01/08/2011,31/12/2099,2,02/07/2017,KX0R
W0C/FR-140,USA - Colorado,CO-Front Range,10650,3246,10650,-104.988,38.7267,-104.988,38.7267,6,3,01/08/2011,31/12/2099,50,16/04/2025,K7PX
W0C/FR-141,USA - Colorado,CO-Front Range,10620,3237,10620,-105.3939,39.2545,-105.3939,39.2545,6,3,01/08/2011,31/12/2099,6,04/10/2023,KX0R
W0C/FR-142,USA - Colorado,CO-Front Range,Raspberry Mountain,3232,10605,-105.1244,38.9071,-105.1244,38.9071,6,3,01/08/2011,31/12/2099,119,28/09/2025,W0XC
W0C/FR-143,USA - Colorado,CO-Front Range,Brind Mountain,3198,10492,-105.1169,38.6941,-105.1169,38.6941,4,3,01/08/2011,31/12/2099,0,,
W0C/FR-144,USA - Colorado,CO-Front Range,Knights Peak,3197,10490,-104.9463,38.7254,-104.9463,38.7254,4,3,01/08/2011,31/12/2099,61,14/07/2025,K7PX
W0C/FR-145,USA - Colorado,CO-Front Range,McGregor Mountain,3196,10486,-105.5768,40.4136,-105.5768,40.4136,4,3,01/08/2011,31/12/2099,13,27/05/2024,K0MOS/P
W0C/FR-146,USA - Colorado,CO-Front Range,East White Pine Mountain,3124,10248,-105.4463,40.6048,-105.4463,40.6048,4,3,01/08/2011,31/12/2099,16,04/10/2024,KI0KN
W0C/FR-147,USA - Colorado,CO-Front Range,10148,3093,10148,-106.0032,40.808,-106.0032,40.808,4,3,01/08/2011,31/12/2099,0,,
W0C/FR-148,USA - Colorado,CO-Front Range,Buckeye Mountain,3091,10140,-105.5626,39.9219,-105.5626,39.9219,4,3,01/08/2011,31/12/2099,5,22/06/2025,K0DBU
W0C/FR-149,USA - Colorado,CO-Front Range,Green Mountain,3091,10140,-104.9634,38.6966,-104.9634,38.6966,4,3,01/08/2011,31/12/2099,6,15/05/2019,WG0AT
W0C/FR-150,USA - Colorado,CO-Front Range,Thunder Peak,3089,10134,-105.5674,40.3135,-105.5674,40.3135,4,3,01/08/2011,31/12/2099,29,13/09/2025,K0MOS
W0C/FR-151,USA - Colorado,CO-Front Range,Bull Mountain,3073,10082,-105.8346,40.9175,-105.8346,40.9175,4,3,01/08/2011,31/12/2099,6,10/10/2023,K0FTC
W0C/FR-152,USA - Colorado,CO-Front Range,The Needles,3069,10068,-105.5512,40.4155,-105.5512,40.4155,4,3,01/08/2011,31/12/2099,22,31/08/2025,N0DET
W0C/FR-153,USA - Colorado,CO-Front Range,Ely Hill,3062,10045,-105.4207,39.8047,-105.4207,39.8047,4,3,01/08/2011,31/12/2099,0,,
W0C/FR-154,USA - Colorado,CO-Front Range,10020,3054,10020,-105.8185,40.641,-105.8185,40.641,4,3,01/08/2011,31/12/2099,0,,
W0C/FR-155,USA - Colorado,CO-Front Range,Deer Mountain,3052,10013,-105.5844,40.3793,-105.5844,40.3793,4,3,01/08/2011,31/12/2099,82,01/07/2025,N1SMB
W0C/FR-156,USA - Colorado,CO-Front Range,9986,3044,9986,-105.8073,40.6035,-105.8073,40.6035,4,3,01/08/2011,31/12/2099,1,15/09/2016,KX0R
W0C/FR-157,USA - Colorado,CO-Front Range,Black Mountain,3032,9949,-105.639,40.8719,-105.639,40.8719,4,3,01/08/2011,31/12/2099,3,23/11/2024,N0MRK
W0C/FR-158,USA - Colorado,CO-Front Range,9880,3011,9880,-105.1586,38.6581,-105.1586,38.6581,4,3,01/08/2011,31/12/2099,0,,
W0C/FR-159,USA - Colorado,CO-Front Range,Little Pisgah Peak,2989,9808,-105.1808,38.6754,-105.1808,38.6754,4,3,01/08/2011,31/12/2099,1,20/11/2016,K0DRJ
W0C/FR-160,USA - Colorado,CO-Front Range,Pierson Mountain,2988,9803,-105.4748,40.3025,-105.4748,40.3025,4,3,01/08/2011,31/12/2099,20,11/08/2025,KX0R
W0C/FR-161,USA - Colorado,CO-Front Range,The Castle,2954,9691,-105.3806,39.3113,-105.3806,39.3113,4,3,01/08/2011,31/12/2099,0,,
W0C/FR-162,USA - Colorado,CO-Front Range,Crystal Peak,2937,9637,-105.2893,38.9961,-105.2893,38.9961,4,3,01/08/2011,31/12/2099,0,,
W0C/FR-163,USA - Colorado,CO-Front Range,9595,2925,9595,-105.2198,38.7848,-105.2198,38.7848,4,3,01/08/2011,31/12/2099,0,,
W0C/FR-164,USA - Colorado,CO-Front Range,Visitor Point,2896,9501,-105.3973,39.8274,-105.3973,39.8274,4,3,01/08/2011,31/12/2099,67,07/09/2025,WB0JNR
W0C/FR-165,USA - Colorado,CO-Front Range,Signal Butte,2883,9459,-105.2229,39.0583,-105.2229,39.0583,4,3,01/08/2011,31/12/2099,94,05/10/2025,KX0R
W0C/FR-166,USA - Colorado,CO-Front Range,Riley Peak,2874,9428,-105.2812,39.4844,-105.2812,39.4844,4,3,01/08/2011,31/12/2099,1,12/12/2014,W0CP
W0C/FR-167,USA - Colorado,CO-Front Range,Blue Mountain,2871,9420,-105.3542,39.8749,-105.3542,39.8749,4,3,01/08/2011,31/12/2099,0,,
W0C/FR-168,USA - Colorado,CO-Front Range,9410,2868,9410,-104.8944,38.7178,-104.8944,38.7178,4,3,01/08/2011,31/12/2099,56,20/05/2025,K7PX
W0C/FR-169,USA - Colorado,CO-Front Range,Middle Mountain,2848,9344,-105.8717,40.7591,-105.8717,40.7591,4,3,01/08/2011,31/12/2099,6,23/10/2024,KX0R
W0C/FR-170,USA - Colorado,CO-Front Range,Blue Benchmark,2841,9322,-105.3379,39.8768,-105.3379,39.8768,4,3,01/08/2011,31/12/2099,1,14/11/2017,N1OIE
W0C/FR-171,USA - Colorado,CO-Front Range,Green Mountain,2818,9245,-105.6315,40.96,-105.6315,40.96,4,3,01/08/2011,31/12/2099,7,11/09/2025,AD8IS
W0C/FR-172,USA - Colorado,CO-Front Range,9166,2794,9166,-105.4173,40.6209,-105.4173,40.6209,4,3,01/08/2011,31/12/2099,3,11/07/2018,KX0R
W0C/FR-173,USA - Colorado,CO-Front Range,Rollins Benchmark,2790,9153,-105.4872,39.9156,-105.4872,39.9156,4,3,01/08/2011,31/12/2099,4,15/09/2024,KD0FNR
W0C/FR-174,USA - Colorado,CO-Front Range,Bald Mountain,2788,9147,-105.4517,40.0254,-105.4517,40.0254,4,3,01/08/2011,31/12/2099,131,16/08/2025,KX0R
W0C/FR-175,USA - Colorado,CO-Front Range,9128,2782,9128,-105.2867,39.5263,-105.2867,39.5263,4,3,01/08/2011,31/12/2099,1,22/11/2014,W0CP
W0C/FR-176,USA - Colorado,CO-Front Range,Red Mountain,2775,9103,-105.935,40.9945,-105.935,40.9945,4,3,01/08/2011,31/12/2099,15,21/12/2024,KK7QHS
W0C/FR-177,USA - Colorado,CO-Front Range,Popeye Peak,2746,9008,-105.5195,40.2305,-105.5195,40.2305,4,3,01/08/2011,31/12/2099,13,02/03/2024,WV0X
W0C/FR-178,USA - Colorado,CO-Front Range,Sheeprock,2706,8877,-105.3304,39.1896,-105.3304,39.1896,2,0,01/08/2011,31/12/2099,0,,
W0C/FR-179,USA - Colorado,CO-Front Range,8849,2697,8849,-105.4571,40.2269,-105.4571,40.2269,2,0,01/08/2011,31/12/2099,24,03/05/2025,KX0R
W0C/FR-180,USA - Colorado,CO-Front Range,8812,2686,8812,-105.3131,39.4611,-105.3131,39.4611,2,0,01/08/2011,31/12/2099,0,,
W0C/FR-181,USA - Colorado,CO-Front Range,Scar Top Mountain,2676,8780,-105.327,39.9097,-105.327,39.9097,2,0,01/08/2011,31/12/2099,7,07/10/2021,KX0R
W0C/FR-182,USA - Colorado,CO-Front Range,South Sheeprock,2664,8740,-105.3302,39.165,-105.3302,39.165,2,0,01/08/2011,31/12/2099,1,06/11/2017,KX0R
W0C/FR-183,USA - Colorado,CO-Front Range,8740,2664,8740,-105.5565,40.9021,-105.5565,40.9021,2,0,01/08/2011,31/12/2099,3,13/11/2016,N0TA
W0C/FR-184,USA - Colorado,CO-Front Range,Twin Sisters Peak,2663,8738,-105.3846,39.9728,-105.3846,39.9728,2,0,01/08/2011,31/12/2099,43,21/09/2025,N0DET
W0C/FR-185,USA - Colorado,CO-Front Range,Centennial Cone,2645,8679,-105.3591,39.7524,-105.3591,39.7524,2,0,01/08/2011,31/12/2099,59,07/07/2025,KX0R
W0C/FR-186,USA - Colorado,CO-Front Range,8588,2618,8588,-105.3511,40.1402,-105.3511,40.1402,2,0,01/08/2011,31/12/2099,3,28/03/2022,N0DET
W0C/FR-187,USA - Colorado,CO-Front Range,Cathedral Spires,2615,8580,-105.2559,39.4224,-105.2559,39.4224,2,0,01/08/2011,31/12/2099,2,27/12/2021,K7EEX
W0C/FR-188,USA - Colorado,CO-Front Range,8488,2587,8488,-105.6376,40.6978,-105.6376,40.6978,2,0,01/08/2011,31/12/2099,0,,
W0C/FR-189,USA - Colorado,CO-Front Range,8422,2567,8422,-105.3781,40.1838,-105.3781,40.1838,2,0,01/08/2011,31/12/2099,1,26/05/2021,N0DET
W0C/FR-190,USA - Colorado,CO-Front Range,Coffee Pot Hill,2544,8346,-105.1807,39.4874,-105.1807,39.4874,2,0,01/08/2011,31/12/2099,0,,
W0C/FR-191,USA - Colorado,CO-Front Range,8315,2534,8315,-105.3457,40.1525,-105.3457,40.1525,2,0,01/08/2011,31/12/2099,4,26/07/2019,KE9AJ
W0C/FR-192,USA - Colorado,CO-Front Range,8310,2533,8310,-105.3418,40.404,-105.3418,40.404,2,0,01/08/2011,31/12/2099,0,,
W0C/FR-193,USA - Colorado,CO-Front Range,South Sheep Mountain,2530,8300,-105.4263,40.2086,-105.4263,40.2086,2,0,01/08/2011,31/12/2099,8,11/10/2021,KX0R
W0C/FR-194,USA - Colorado,CO-Front Range,Genesee Mountain,2525,8284,-105.2938,39.7032,-105.2938,39.7032,2,0,01/08/2011,31/12/2099,271,01/10/2025,WX8V
W0C/FR-195,USA - Colorado,CO-Front Range,Raleigh Peak,2497,8191,-105.2149,39.3955,-105.2149,39.3955,2,0,01/08/2011,31/12/2099,10,29/06/2022,N0IPA
W0C/FR-196,USA - Colorado,CO-Front Range,8161,2487,8161,-105.4739,40.8144,-105.4739,40.8144,2,0,01/08/2011,31/12/2099,0,,
W0C/FR-197,USA - Colorado,CO-Front Range,Flat Top Mountain,2469,8100,-105.1648,39.4987,-105.1648,39.4987,2,0,01/08/2011,31/12/2099,0,,
W0C/FR-198,USA - Colorado,CO-Front Range,7980,2432,7980,-105.3689,40.6738,-105.3689,40.6738,1,0,01/08/2011,31/12/2099,2,21/12/2020,KX0R
W0C/FR-199,USA - Colorado,CO-Front Range,7965,2428,7965,-105.2101,39.5998,-105.2101,39.5998,1,0,01/08/2011,31/12/2099,0,,
W0C/FR-200,USA - Colorado,CO-Front Range,7955,2425,7955,-105.2063,39.5748,-105.2063,39.5748,1,0,01/08/2011,31/12/2099,0,,
W0C/FR-201,USA - Colorado,CO-Front Range,7835,2388,7835,-105.4153,40.7815,-105.4153,40.7815,1,0,01/08/2011,31/12/2099,0,,
W0C/FR-202,USA - Colorado,CO-Front Range,Raspberry Butte,2359,7740,-104.9092,39.2196,-104.9092,39.2196,1,0,01/08/2011,31/12/2099,1,01/08/2020,W0DFM
W0C/FR-203,USA - Colorado,CO-Front Range,7660,2335,7660,-105.2444,40.607,-105.2444,40.607,1,0,01/08/2011,31/12/2099,2,03/11/2023,KI0KN
W0C/FR-204,USA - Colorado,CO-Front Range,7635,2327,7635,-104.9863,38.1254,-104.9863,38.1254,1,0,01/08/2011,31/12/2099,0,,
W0C/FR-205,USA - Colorado,CO-Front Range,7612,2320,7612,-105.457,40.6875,-105.457,40.6875,1,0,01/08/2011,31/12/2099,13,01/02/2025,AE0IH
W0C/FR-206,USA - Colorado,CO-Front Range,Larkspur Butte,2297,7535,-104.8666,39.2263,-104.8666,39.2263,1,0,01/08/2011,31/12/2099,0,,
W0C/FR-207,USA - Colorado,CO-Front Range,7521,2292,7521,-105.2354,40.5901,-105.2354,40.5901,1,0,01/08/2011,31/12/2099,0,,
W0C/FR-208,USA - Colorado,CO-Front Range,7509,2289,7509,-105.3502,40.2737,-105.3502,40.2737,1,0,01/08/2011,31/12/2099,11,19/06/2023,K0MOS
W0C/FR-209,USA - Colorado,CO-Front Range,7501,2286,7501,-105.3587,40.7185,-105.3587,40.7185,1,0,01/08/2011,31/12/2099,4,05/05/2024,KI0KN
W0C/FR-210,USA - Colorado,CO-Front Range,7383,2250,7383,-105.3079,40.3581,-105.3079,40.3581,1,0,01/08/2011,31/12/2099,0,,
W0C/FR-211,USA - Colorado,CO-Front Range,7335,2236,7335,-105.2752,40.3686,-105.2752,40.3686,1,0,01/08/2011,31/12/2099,0,,
W0C/FR-212,USA - Colorado,CO-Front Range,7260,2213,7260,-105.2586,40.6363,-105.2586,40.6363,1,0,01/08/2011,31/12/2099,0,,
W0C/FR-213,USA - Colorado,CO-Front Range,7220,2201,7220,-105.3857,40.9069,-105.3857,40.9069,1,0,01/08/2011,31/12/2099,0,,
W0C/FR-214,USA - Colorado,CO-Front Range,Table Mountain,2156,7074,-105.1742,40.9415,-105.1742,40.9415,1,0,01/08/2011,31/12/2099,3,11/04/2015,AD0LG
W0C/FR-215,USA - Colorado,CO-Front Range,South Ralston,2128,6980,-105.2585,39.8327,-105.2585,39.8327,1,0,01/08/2011,31/12/2099,0,,
W0C/FR-216,USA - Colorado,CO-Front Range,6823,2080,6823,-105.216,40.717,-105.216,40.717,1,0,01/08/2011,31/12/2099,9,05/12/2024,KX0R
W0C/FR-217,USA - Colorado,CO-Front Range,6700,2042,6700,-105.2689,40.2514,-105.2689,40.2514,1,0,01/08/2011,31/12/2099,0,,
W0C/FR-218,USA - Colorado,CO-Front Range,6674,2034,6674,-105.2379,40.4018,-105.2379,40.4018,1,0,01/08/2011,31/12/2099,0,,
W0C/FR-219,USA - Colorado,CO-Front Range,Booth Mountain,1972,6470,-104.8733,38.4876,-104.8733,38.4876,1,0,01/08/2011,31/12/2099,2,28/05/2022,K0NAJ
W0C/FR-220,USA - Colorado,CO-Front Range,6380,1945,6380,-105.1465,40.8485,-105.1465,40.8485,1,0,01/08/2011,31/12/2099,0,,
W0C/FR-221,USA - Colorado,CO-Front Range,Weaver Peak,1905,6250,-105.1578,40.7588,-105.1578,40.7588,1,0,01/08/2011,31/12/2099,1,02/02/2019,AD0KI
W0C/FR-222,USA - Colorado,CO-Front Range,10715,3266,10715,-105.7255,38.7452,-105.7255,38.7452,6,3,01/04/2017,31/12/2099,31,21/09/2025,WA2USA/P
W0C/FR-223,USA - Colorado,CO-Front Range,10472,3192,10472,-105.8198,40.5669,-105.8198,40.5669,4,3,01/04/2017,31/12/2099,2,31/07/2018,KX0R
W0C/FR-224,USA - Colorado,CO-Front Range,10140,3091,10140,-105.5206,38.7809,-105.5206,38.7809,4,3,01/04/2017,31/12/2099,0,,
W0C/FR-225,USA - Colorado,CO-Front Range,Agate Mountain,3049,10002,-105.7883,38.7889,-105.7883,38.7889,4,3,01/04/2017,31/12/2099,21,20/12/2024,WV0X
W0C/FR-226,USA - Colorado,CO-Front Range,Rams Horn Mountain,2913,9556,-105.5468,40.3347,-105.5468,40.3347,4,3,01/04/2017,31/12/2099,28,01/08/2025,KX0R
W0C/FR-227,USA - Colorado,CO-Front Range,8555,2608,8555,-105.5466,40.8364,-105.5466,40.8364,2,0,01/04/2017,31/12/2099,1,14/05/2022,KE0ZMK
W0C/FR-228,USA - Colorado,CO-Front Range,8037,2450,8037,-105.303,40.6221,-105.303,40.6221,2,0,01/04/2017,31/12/2099,0,,
W0C/FR-229,USA - Colorado,CO-Front Range,7875,2400,7875,-105.3333,40.6592,-105.3333,40.6592,1,0,01/04/2017,31/12/2099,1,26/12/2020,KX0R
W0C/FR-230,USA - Colorado,CO-Front Range,Mount Julian,3940,12928,-105.7575,40.3711,-105.7575,40.3711,8,3,01/08/2011,31/12/2099,0,,
W0C/FR-231,USA - Colorado,CO-Front Range,10060,3066,10060,-105.8311,40.6616,-105.8311,40.6616,4,3,01/08/2011,31/12/2099,1,23/09/2018,KX0R
W0C/LG-001,USA - Colorado,CO-La Garita,Crestone Peak,4357,14294,-105.5853,37.9667,-105.5853,37.9667,10,3,01/08/2011,31/12/2099,1,06/08/2016,KI6YMZ
W0C/LG-002,USA - Colorado,CO-La Garita,Kit Carson Mountain,4317,14165,-105.6025,37.9797,-105.6025,37.9797,10,3,01/08/2011,31/12/2099,3,05/08/2018,KE0HNW
W0C/LG-003,USA - Colorado,CO-La Garita,Stewart Peak,4262,13983,-106.9233,38.023,-106.9233,38.023,10,3,01/08/2011,31/12/2099,0,,
W0C/LG-004,USA - Colorado,CO-La Garita,Organ Mountain,4207,13801,-106.8952,37.9912,-106.8952,37.9912,10,3,01/08/2011,31/12/2099,0,,
W0C/LG-005,USA - Colorado,CO-La Garita,Baldy Alto,4175,13698,-106.9215,38.0053,-106.9215,38.0053,10,3,01/08/2011,31/12/2099,1,01/08/2020,KF0AUK
W0C/LG-006,USA - Colorado,CO-La Garita,Pico Aislado,4149,13611,-105.5589,37.9442,-105.5589,37.9442,10,3,01/08/2011,31/12/2099,0,,
W0C/LG-007,USA - Colorado,CO-La Garita,13546,4129,13546,-105.619,38.0035,-105.619,38.0035,10,3,01/08/2011,31/12/2099,0,,
W0C/LG-008,USA - Colorado,CO-La Garita,13490,4112,13490,-105.6855,38.1212,-105.6855,38.1212,8,3,01/08/2011,31/12/2099,0,,
W0C/LG-009,USA - Colorado,CO-La Garita,Mount Herard,4066,13340,-105.4949,37.8492,-105.4949,37.8492,8,3,01/08/2011,31/12/2099,1,14/10/2023,WV0X
W0C/LG-010,USA - Colorado,CO-La Garita,Mount Owen,4066,13340,-105.7136,38.1389,-105.7136,38.1389,8,3,01/08/2011,31/12/2099,0,,
W0C/LG-011,USA - Colorado,CO-La Garita,Antora Peak,4044,13269,-106.218,38.3249,-106.218,38.3249,8,3,01/08/2011,31/12/2099,2,05/10/2024,W0SNO
W0C/LG-012,USA - Colorado,CO-La Garita,Medano Peak,4009,13153,-105.4924,37.8614,-105.4924,37.8614,8,3,01/08/2011,31/12/2099,1,14/10/2023,WV0X
W0C/LG-013,USA - Colorado,CO-La Garita,13062,3981,13062,-105.6895,38.0949,-105.6895,38.0949,8,3,01/08/2011,31/12/2099,0,,
W0C/LG-014,USA - Colorado,CO-La Garita,Pyramid Mountain,3979,13054,-105.6589,38.0601,-105.6589,38.0601,8,3,01/08/2011,31/12/2099,0,,
W0C/LG-015,USA - Colorado,CO-La Garita,Mesa Mountain,3956,12980,-106.6348,37.9044,-106.6348,37.9044,8,3,01/08/2011,31/12/2099,0,,
W0C/LG-016,USA - Colorado,CO-La Garita,12883,3927,12883,-105.4861,37.8735,-105.4861,37.8735,8,3,01/08/2011,31/12/2099,1,14/10/2023,WV0X
W0C/LG-017,USA - Colorado,CO-La Garita,Gibson Peak,3925,12878,-105.7126,38.0731,-105.7126,38.0731,8,3,01/08/2011,31/12/2099,0,,
W0C/LG-018,USA - Colorado,CO-La Garita,Boot Mountain,3786,12422,-106.5414,37.9204,-106.5414,37.9204,6,3,01/08/2011,31/12/2099,1,07/08/2021,KJ4DER
W0C/LG-019,USA - Colorado,CO-La Garita,Whale Hill,3707,12162,-106.1034,38.3217,-106.1034,38.3217,6,3,01/08/2011,31/12/2099,1,21/08/2025,KD8EQA
W0C/LG-020,USA - Colorado,CO-La Garita,Sawtooth Mountain,3702,12147,-106.8671,38.2739,-106.8671,38.2739,6,3,01/08/2011,31/12/2099,0,,
W0C/LG-021,USA - Colorado,CO-La Garita,Hayden Peak,3697,12130,-106.104,38.275,-106.104,38.275,6,3,01/08/2011,31/12/2099,0,,
W0C/LG-022,USA - Colorado,CO-La Garita,12086,3684,12086,-106.7332,37.9223,-106.7332,37.9223,6,3,01/08/2011,31/12/2099,0,,
W0C/LG-023,USA - Colorado,CO-La Garita,Sheep Mountain,3684,12085,-106.7317,37.9467,-106.7317,37.9467,6,3,01/08/2011,31/12/2099,0,,
W0C/LG-024,USA - Colorado,CO-La Garita,Flagstaff Mountain,3680,12072,-106.1996,38.2756,-106.1996,38.2756,6,3,01/08/2011,31/12/2099,0,,
W0C/LG-025,USA - Colorado,CO-La Garita,Long Branch Baldy,3650,11974,-106.474,38.3221,-106.474,38.3221,6,3,01/08/2011,31/12/2099,0,,
W0C/LG-026,USA - Colorado,CO-La Garita,Table Mountain,3627,11900,-106.781,38.0017,-106.781,38.0017,6,3,01/08/2011,31/12/2099,0,,
W0C/LG-027,USA - Colorado,CO-La Garita,Sargents Mesa,3573,11724,-106.3845,38.2878,-106.3845,38.2878,6,3,01/08/2011,31/12/2099,6,17/07/2021,KF0AXN
W0C/LG-028,USA - Colorado,CO-La Garita,Razor Creek Dome,3514,11530,-106.7169,38.316,-106.7169,38.316,6,3,01/08/2011,31/12/2099,0,,
W0C/LG-029,USA - Colorado,CO-La Garita,Lookout Mountain,3510,11516,-106.4798,37.9871,-106.4798,37.9871,6,3,01/08/2011,31/12/2099,0,,
W0C/LG-030,USA - Colorado,CO-La Garita,11504,3506,11504,-106.7396,38.0912,-106.7396,38.0912,6,3,01/08/2011,31/12/2099,0,,
W0C/LG-031,USA - Colorado,CO-La Garita,Lujan Benchmark,3463,11361,-106.5896,38.252,-106.5896,38.252,6,3,01/08/2011,30/11/2017,1,05/08/2017,W0CP
W0C/LG-032,USA - Colorado,CO-La Garita,Blue Mountain,3451,11322,-106.478,37.8338,-106.478,37.8338,6,3,01/08/2011,31/12/2099,0,,
W0C/LG-033,USA - Colorado,CO-La Garita,Mount KIA/MIA,3439,11282,-106.2056,38.3667,-106.2056,38.3667,6,3,01/08/2011,31/12/2099,0,,
W0C/LG-034,USA - Colorado,CO-La Garita,11236,3425,11236,-106.3308,37.9873,-106.3308,37.9873,6,3,01/08/2011,31/12/2099,0,,
W0C/LG-035,USA - Colorado,CO-La Garita,11140,3395,11140,-106.957,38.1258,-106.957,38.1258,6,3,01/08/2011,31/12/2099,0,,
W0C/LG-036,USA - Colorado,CO-La Garita,Cochetopa Dome,3393,11132,-106.7146,38.2267,-106.7146,38.2267,6,3,01/08/2011,31/12/2099,1,24/05/2025,N0MTN
W0C/LG-037,USA - Colorado,CO-La Garita,Tracy Mountain,3358,11017,-106.2998,38.0192,-106.2998,38.0192,6,3,01/08/2011,31/12/2099,0,,
W0C/LG-038,USA - Colorado,CO-La Garita,10998,3352,10998,-106.5825,38.1986,-106.5825,38.1986,6,3,01/08/2011,31/12/2099,1,27/05/2018,N0MTN
W0C/LG-039,USA - Colorado,CO-La Garita,10989,3349,10989,-106.5547,38.2291,-106.5547,38.2291,6,3,01/08/2011,31/12/2099,1,14/09/2025,AA4K
W0C/LG-040,USA - Colorado,CO-La Garita,10936,3333,10936,-106.5943,38.3381,-106.5943,38.3381,6,3,01/08/2011,31/12/2099,0,,
W0C/LG-041,USA - Colorado,CO-La Garita,Green Mountain,3331,10930,-106.6478,38.2903,-106.6478,38.2903,6,3,01/08/2011,31/12/2099,1,25/05/2025,N0MTN
W0C/LG-042,USA - Colorado,CO-La Garita,Spruce Mountain,3312,10866,-106.3575,38.0353,-106.3575,38.0353,6,3,01/08/2011,31/12/2099,0,,
W0C/LG-043,USA - Colorado,CO-La Garita,Storm King Mountain,3307,10849,-106.4142,37.9497,-106.4142,37.9497,6,3,01/08/2011,31/12/2099,0,,
W0C/LG-044,USA - Colorado,CO-La Garita,10805,3293,10805,-106.6291,38.3561,-106.6291,38.3561,6,3,01/08/2011,31/12/2099,0,,
W0C/LG-045,USA - Colorado,CO-La Garita,10718,3267,10718,-106.3443,37.9164,-106.3443,37.9164,6,3,01/08/2011,31/12/2099,0,,
W0C/LG-046,USA - Colorado,CO-La Garita,Hat Mountain,3240,10630,-106.5139,38.0186,-106.5139,38.0186,6,3,01/08/2011,31/12/2099,1,17/08/2017,W0CP
W0C/LG-047,USA - Colorado,CO-La Garita,10610,3234,10610,-106.9802,38.2549,-106.9802,38.2549,6,3,01/08/2011,31/12/2099,0,,
W0C/LG-048,USA - Colorado,CO-La Garita,10551,3216,10551,-106.1576,38.2044,-106.1576,38.2044,6,3,01/08/2011,31/12/2099,0,,
W0C/LG-049,USA - Colorado,CO-La Garita,Saguache Peak,3216,10550,-106.1078,38.1514,-106.1078,38.1514,6,3,01/08/2011,31/12/2099,3,28/09/2022,W0CP
W0C/LG-050,USA - Colorado,CO-La Garita,North Twin Mountains,3210,10530,-106.4714,37.7767,-106.4714,37.7767,6,3,01/08/2011,31/12/2099,0,,
W0C/LG-051,USA - Colorado,CO-La Garita,Eagle Mountain,3189,10462,-106.407,37.8158,-106.407,37.8158,4,3,01/08/2011,31/12/2099,0,,
W0C/LG-052,USA - Colorado,CO-La Garita,Mount Lion,3171,10402,-106.4073,38.0566,-106.4073,38.0566,4,3,01/08/2011,31/12/2099,1,17/08/2017,W0CP
W0C/LG-053,USA - Colorado,CO-La Garita,10396,3169,10396,-106.6368,38.1566,-106.6368,38.1566,4,3,01/08/2011,31/12/2099,0,,
W0C/LG-054,USA - Colorado,CO-La Garita,Big Hill,3122,10243,-106.5734,38.366,-106.5734,38.366,4,3,01/08/2011,31/12/2099,0,,
W0C/LG-055,USA - Colorado,CO-La Garita,10150,3094,10150,-106.4086,37.8716,-106.4086,37.8716,4,3,01/08/2011,31/12/2099,0,,
W0C/LG-056,USA - Colorado,CO-La Garita,Trickle Mountain,3088,10132,-106.3953,38.1561,-106.3953,38.1561,4,3,01/08/2011,31/12/2099,0,,
W0C/LG-057,USA - Colorado,CO-La Garita,9610,2929,9610,-106.3663,37.8214,-106.3663,37.8214,4,3,01/08/2011,31/12/2099,0,,
W0C/LG-058,USA - Colorado,CO-La Garita,9532,2905,9532,-106.0351,38.2149,-106.0351,38.2149,4,3,01/08/2011,31/12/2099,0,,
W0C/LG-059,USA - Colorado,CO-La Garita,9519,2901,9519,-106.4376,38.1564,-106.4376,38.1564,4,3,01/08/2011,31/12/2099,0,,
W0C/LG-060,USA - Colorado,CO-La Garita,Houghland Hill,2899,9512,-106.2939,38.1309,-106.2939,38.1309,4,3,01/08/2011,31/12/2099,3,28/09/2022,W0CP
W0C/LG-061,USA - Colorado,CO-La Garita,9403,2866,9403,-106.7049,38.4084,-106.7049,38.4084,4,3,01/08/2011,31/12/2099,0,,
W0C/LG-062,USA - Colorado,CO-La Garita,9292,2832,9292,-106.3072,37.8812,-106.3072,37.8812,4,3,01/08/2011,31/12/2099,0,,
W0C/LG-063,USA - Colorado,CO-La Garita,9175,2797,9175,-106.2661,37.9133,-106.2661,37.9133,4,3,01/08/2011,31/12/2099,0,,
W0C/LG-064,USA - Colorado,CO-La Garita,9033,2753,9033,-106.3383,37.8041,-106.3383,37.8041,4,3,01/08/2011,31/12/2099,0,,
W0C/LG-065,USA - Colorado,CO-La Garita,9020,2749,9020,-106.408,37.7631,-106.408,37.7631,4,3,01/08/2011,31/12/2099,0,,
W0C/LG-066,USA - Colorado,CO-La Garita,8938,2724,8938,-106.1808,38.0584,-106.1808,38.0584,2,0,01/08/2011,31/12/2099,1,30/08/2020,KF0AUK
W0C/LG-067,USA - Colorado,CO-La Garita,8790,2679,8790,-106.3545,37.7625,-106.3545,37.7625,2,0,01/08/2011,31/12/2099,0,,
W0C/LG-068,USA - Colorado,CO-La Garita,11380,3469,11380,-106.5888,38.2541,-106.5888,38.2541,6,3,01/04/2017,31/12/2099,1,05/08/2017,W0CP
W0C/MZ-001,USA - Colorado,CO-Mt Zirkel WA,Big Agnes Mountain,3676,12060,-106.6923,40.8297,-106.6923,40.8297,6,3,01/08/2011,31/12/2099,0,,
W0C/MZ-002,USA - Colorado,CO-Mt Zirkel WA,Mount Hobbs,3529,11577,-106.7151,40.6521,-106.7151,40.6521,6,3,01/08/2011,31/12/2099,0,,
W0C/MZ-003,USA - Colorado,CO-Mt Zirkel WA,South Buck Mountain,3474,11396,-106.7389,40.8679,-106.7389,40.8679,6,3,01/08/2011,31/12/2099,0,,
W0C/MZ-004,USA - Colorado,CO-Mt Zirkel WA,11085,3379,11085,-107.0319,40.0249,-107.0319,40.0249,6,3,01/08/2011,31/12/2099,0,,
W0C/MZ-005,USA - Colorado,CO-Mt Zirkel WA,10970,3344,10970,-106.7302,40.5817,-106.7302,40.5817,6,3,01/08/2011,31/12/2099,2,31/08/2019,KD0YOB
W0C/MZ-006,USA - Colorado,CO-Mt Zirkel WA,McFaddin Peak,3316,10879,-107.0575,40.7635,-107.0575,40.7635,6,3,01/08/2011,31/12/2099,1,24/09/2021,K7GUD
W0C/MZ-007,USA - Colorado,CO-Mt Zirkel WA,Farwell Mountain,3310,10860,-106.8486,40.8243,-106.8486,40.8243,6,3,01/08/2011,31/12/2099,1,21/08/2025,N1SMB
W0C/MZ-008,USA - Colorado,CO-Mt Zirkel WA,10778,3285,10778,-106.6778,40.1857,-106.6778,40.1857,6,3,01/08/2011,31/12/2099,0,,
W0C/MZ-009,USA - Colorado,CO-Mt Zirkel WA,Gore Mountain,3257,10687,-106.657,40.2234,-106.657,40.2234,6,3,01/08/2011,31/12/2099,1,16/09/2022,N0MTN
W0C/MZ-010,USA - Colorado,CO-Mt Zirkel WA,Mount Oliphant,3252,10670,-107.3784,40.8139,-107.3784,40.8139,6,3,01/08/2011,31/12/2099,1,02/09/2019,KD0YOB
W0C/MZ-011,USA - Colorado,CO-Mt Zirkel WA,West Bears Ears Peaks,3224,10577,-107.2493,40.7773,-107.2493,40.7773,6,3,01/08/2011,31/12/2099,1,03/09/2018,KD0YOB
W0C/MZ-012,USA - Colorado,CO-Mt Zirkel WA,Meaden Peak,3219,10561,-107.0778,40.7674,-107.0778,40.7674,6,3,01/08/2011,31/12/2099,2,24/09/2021,K7GUD
W0C/MZ-013,USA - Colorado,CO-Mt Zirkel WA,Walton Peak,3218,10559,-106.6993,40.3545,-106.6993,40.3545,6,3,01/08/2011,31/12/2099,12,07/09/2025,KG0AT
W0C/MZ-014,USA - Colorado,CO-Mt Zirkel WA,Green Ridge,3217,10555,-106.7925,40.1314,-106.7925,40.1314,6,3,01/08/2011,31/12/2099,4,14/08/2022,KD0YOB
W0C/MZ-015,USA - Colorado,CO-Mt Zirkel WA,Dome Peak,3208,10524,-106.8209,40.8719,-106.8209,40.8719,6,3,01/08/2011,31/12/2099,0,,
W0C/MZ-016,USA - Colorado,CO-Mt Zirkel WA,Black Mountain,3186,10454,-106.6535,39.987,-106.6535,39.987,4,3,01/08/2011,31/12/2099,0,,
W0C/MZ-017,USA - Colorado,CO-Mt Zirkel WA,Diamond Peak,3178,10428,-107.075,40.803,-107.075,40.803,4,3,01/08/2011,31/12/2099,0,,
W0C/MZ-018,USA - Colorado,CO-Mt Zirkel WA,10387,3166,10387,-106.6915,40.2859,-106.6915,40.2859,4,3,01/08/2011,31/12/2099,0,,
W0C/MZ-019,USA - Colorado,CO-Mt Zirkel WA,Cougar Mountain,3150,10335,-107.3023,40.7735,-107.3023,40.7735,4,3,01/08/2011,31/12/2099,1,03/09/2018,KD0YOB
W0C/MZ-020,USA - Colorado,CO-Mt Zirkel WA,Nipple Peak,3147,10324,-107.0382,40.8728,-107.0382,40.8728,4,3,01/08/2011,31/12/2099,1,02/11/2016,KD0YOB
W0C/MZ-021,USA - Colorado,CO-Mt Zirkel WA,10296,3138,10296,-106.7118,40.3265,-106.7118,40.3265,4,3,01/08/2011,31/12/2099,0,,
W0C/MZ-022,USA - Colorado,CO-Mt Zirkel WA,Columbus Mountain,3125,10253,-107.1921,40.8797,-107.1921,40.8797,4,3,01/08/2011,31/12/2099,0,,
W0C/MZ-023,USA - Colorado,CO-Mt Zirkel WA,10252,3125,10252,-107.051,40.8377,-107.051,40.8377,4,3,01/08/2011,31/12/2099,2,18/08/2019,KD0YOB
W0C/MZ-024,USA - Colorado,CO-Mt Zirkel WA,King Mountain,3103,10180,-106.8509,39.9901,-106.8509,39.9901,4,3,01/08/2011,31/12/2099,0,,
W0C/MZ-025,USA - Colorado,CO-Mt Zirkel WA,Sugar Loaf Mountain,3078,10100,-107.186,40.7819,-107.186,40.7819,4,3,01/08/2011,31/12/2099,0,,
W0C/MZ-026,USA - Colorado,CO-Mt Zirkel WA,Saddle Mountain,3065,10057,-107.1528,40.7997,-107.1528,40.7997,4,3,01/08/2011,31/12/2099,1,23/10/2021,KD0YOB
W0C/MZ-027,USA - Colorado,CO-Mt Zirkel WA,9995,3046,9995,-107.0274,40.8253,-107.0274,40.8253,4,3,01/08/2011,31/12/2099,1,29/09/2018,KD0YOB
W0C/MZ-028,USA - Colorado,CO-Mt Zirkel WA,Shield Mountain,3024,9921,-107.0725,40.9154,-107.0725,40.9154,4,3,01/08/2011,31/12/2099,0,,
W0C/MZ-029,USA - Colorado,CO-Mt Zirkel WA,Brush Mountain,3008,9869,-107.2491,40.8768,-107.2491,40.8768,4,3,01/08/2011,31/12/2099,0,,
W0C/MZ-030,USA - Colorado,CO-Mt Zirkel WA,Pilot Knob,3005,9858,-107.1018,40.6507,-107.1018,40.6507,4,3,01/08/2011,31/12/2099,0,,
W0C/MZ-031,USA - Colorado,CO-Mt Zirkel WA,Iron Mountain,2964,9725,-106.9886,40.8575,-106.9886,40.8575,4,3,01/08/2011,31/12/2099,5,18/10/2020,KD0YOB
W0C/MZ-032,USA - Colorado,CO-Mt Zirkel WA,9705,2958,9705,-106.7198,40.0272,-106.7198,40.0272,4,3,01/08/2011,31/12/2099,1,26/09/2020,KD0YOB
W0C/MZ-033,USA - Colorado,CO-Mt Zirkel WA,9678,2950,9678,-107.0477,40.9026,-107.0477,40.9026,4,3,01/08/2011,31/12/2099,0,,
W0C/MZ-034,USA - Colorado,CO-Mt Zirkel WA,Diamond Peak,2944,9660,-108.8782,40.9504,-108.8782,40.9504,4,3,01/08/2011,31/12/2099,0,,
W0C/MZ-035,USA - Colorado,CO-Mt Zirkel WA,Anthracite Ridge,2932,9620,-107.0952,40.6898,-107.0952,40.6898,4,3,01/08/2011,31/12/2099,0,,
W0C/MZ-036,USA - Colorado,CO-Mt Zirkel WA,9588,2922,9588,-106.9626,40.8323,-106.9626,40.8323,4,3,01/08/2011,31/12/2099,1,11/10/2021,KD0YOB
W0C/MZ-037,USA - Colorado,CO-Mt Zirkel WA,Middle Mountain,2914,9559,-108.9458,40.9772,-108.9458,40.9772,4,3,01/08/2011,31/12/2099,0,,
W0C/MZ-038,USA - Colorado,CO-Mt Zirkel WA,City Mountain,2913,9557,-107.0023,40.8816,-107.0023,40.8816,4,3,01/08/2011,31/12/2099,1,18/09/2021,KD0YOB
W0C/MZ-039,USA - Colorado,CO-Mt Zirkel WA,9529,2904,9529,-106.7925,40.814,-106.7925,40.814,4,3,01/08/2011,31/12/2099,0,,
W0C/MZ-040,USA - Colorado,CO-Mt Zirkel WA,Bakers Peak,2879,9444,-107.4565,40.918,-107.4565,40.918,4,3,01/08/2011,31/12/2099,0,,
W0C/MZ-041,USA - Colorado,CO-Mt Zirkel WA,9354,2851,9354,-106.8409,40.6362,-106.8409,40.6362,4,3,01/08/2011,31/12/2099,0,,
W0C/MZ-042,USA - Colorado,CO-Mt Zirkel WA,Quaker Mountain,2844,9330,-107.1608,40.6965,-107.1608,40.6965,4,3,01/08/2011,31/12/2099,0,,
W0C/MZ-043,USA - Colorado,CO-Mt Zirkel WA,Piney Mountain,2839,9315,-107.1145,40.9479,-107.1145,40.9479,4,3,01/08/2011,31/12/2099,0,,
W0C/MZ-044,USA - Colorado,CO-Mt Zirkel WA,Grouse Mountain,2829,9281,-106.9054,40.8112,-106.9054,40.8112,4,3,01/08/2011,31/12/2099,1,17/07/2021,W7UM
W0C/MZ-045,USA - Colorado,CO-Mt Zirkel WA,Long Mountain,2826,9273,-107.3217,40.9244,-107.3217,40.9244,4,3,01/08/2011,31/12/2099,0,,
W0C/MZ-046,USA - Colorado,CO-Mt Zirkel WA,Circle Ridge,2817,9243,-107.155,40.8915,-107.155,40.8915,4,3,01/08/2011,31/12/2099,0,,
W0C/MZ-047,USA - Colorado,CO-Mt Zirkel WA,9218,2810,9218,-106.9855,40.841,-106.9855,40.841,4,3,01/08/2011,31/12/2099,10,01/10/2022,KD0YOB
W0C/MZ-048,USA - Colorado,CO-Mt Zirkel WA,Picket Mountain,2808,9212,-107.0161,40.7163,-107.0161,40.7163,4,3,01/08/2011,31/12/2099,0,,
W0C/MZ-049,USA - Colorado,CO-Mt Zirkel WA,Wolf Mountain,2798,9180,-107.111,40.5891,-107.111,40.5891,4,3,01/08/2011,31/12/2099,0,,
W0C/MZ-050,USA - Colorado,CO-Mt Zirkel WA,McAlpin Mountain,2798,9180,-106.9965,40.7392,-106.9965,40.7392,4,3,01/08/2011,31/12/2099,1,26/07/2019,KD0YOB
W0C/MZ-051,USA - Colorado,CO-Mt Zirkel WA,9180,2798,9180,-106.8378,40.6215,-106.8378,40.6215,4,3,01/08/2011,31/12/2099,1,13/09/2025,AA6XA
W0C/MZ-052,USA - Colorado,CO-Mt Zirkel WA,9140,2786,9140,-107.0509,40.2414,-107.0509,40.2414,4,3,01/08/2011,31/12/2099,0,,
W0C/MZ-053,USA - Colorado,CO-Mt Zirkel WA,9100,2774,9100,-106.7835,40.7456,-106.7835,40.7456,4,3,01/08/2011,31/12/2099,1,10/10/2022,KD0YOB
W0C/MZ-054,USA - Colorado,CO-Mt Zirkel WA,Three Forks Mountain,2772,9096,-107.0893,40.9736,-107.0893,40.9736,4,3,01/08/2011,31/12/2099,0,,
W0C/MZ-055,USA - Colorado,CO-Mt Zirkel WA,9070,2765,9070,-106.7945,40.7836,-106.7945,40.7836,4,3,01/08/2011,31/12/2099,0,,
W0C/MZ-056,USA - Colorado,CO-Mt Zirkel WA,Kleins Hill,2758,9048,-109.0261,40.9873,-109.0261,40.9873,4,3,01/08/2011,31/12/2099,0,,
W0C/MZ-057,USA - Colorado,CO-Mt Zirkel WA,Woodchuck Hill,2734,8971,-106.8153,40.2575,-106.8153,40.2575,2,0,01/08/2011,31/12/2099,0,,
W0C/MZ-058,USA - Colorado,CO-Mt Zirkel WA,Thorpe Mountain,2734,8970,-106.9147,40.2999,-106.9147,40.2999,2,0,01/08/2011,31/12/2099,0,,
W0C/MZ-059,USA - Colorado,CO-Mt Zirkel WA,8940,2725,8940,-106.9995,40.2348,-106.9995,40.2348,2,0,01/08/2011,31/12/2099,0,,
W0C/MZ-060,USA - Colorado,CO-Mt Zirkel WA,8934,2723,8934,-106.8667,40.694,-106.8667,40.694,2,0,01/08/2011,31/12/2099,1,10/10/2016,KD0YOB
W0C/MZ-061,USA - Colorado,CO-Mt Zirkel WA,Wild Mountain,2701,8860,-109.0392,40.6456,-109.0392,40.6456,2,0,01/08/2011,31/12/2099,0,,
W0C/MZ-062,USA - Colorado,CO-Mt Zirkel WA,Buck Mountain,2701,8860,-107.009,40.6871,-107.009,40.6871,2,0,01/08/2011,31/12/2099,0,,
W0C/MZ-063,USA - Colorado,CO-Mt Zirkel WA,Lester Mountain,2713,8900,-106.9007,40.7794,-106.9007,40.7794,2,0,01/08/2011,31/12/2099,1,28/05/2017,KD0YOB
W0C/MZ-064,USA - Colorado,CO-Mt Zirkel WA,East Gibraltar Peak,2685,8810,-107.2047,40.8996,-107.2047,40.8996,2,0,01/08/2011,31/12/2099,0,,
W0C/MZ-065,USA - Colorado,CO-Mt Zirkel WA,Elk Mountain,2665,8744,-106.9669,40.5693,-106.9669,40.5693,2,0,01/08/2011,31/12/2099,0,,
W0C/MZ-066,USA - Colorado,CO-Mt Zirkel WA,Tanks Peak,2657,8717,-108.7659,40.4258,-108.7659,40.4258,2,0,01/08/2011,31/12/2099,0,,
W0C/MZ-067,USA - Colorado,CO-Mt Zirkel WA,8710,2655,8710,-106.9463,40.7545,-106.9463,40.7545,2,0,01/08/2011,31/12/2099,0,,
W0C/MZ-068,USA - Colorado,CO-Mt Zirkel WA,Blacktail Mountain,2646,8681,-106.841,40.2989,-106.841,40.2989,2,0,01/08/2011,31/12/2099,1,17/10/2016,N0MTN
W0C/MZ-069,USA - Colorado,CO-Mt Zirkel WA,8673,2644,8673,-109.0453,40.7552,-109.0453,40.7552,2,0,01/08/2011,31/12/2099,0,,
W0C/MZ-070,USA - Colorado,CO-Mt Zirkel WA,South Limestone Ridge,2632,8636,-108.7569,40.8322,-108.7569,40.8322,2,0,01/08/2011,31/12/2099,1,08/10/2022,KI6M
W0C/MZ-071,USA - Colorado,CO-Mt Zirkel WA,Hackens Benchmark,2629,8624,-109.0195,40.5952,-109.0195,40.5952,2,0,01/08/2011,31/12/2099,0,,
W0C/MZ-072,USA - Colorado,CO-Mt Zirkel WA,Slippery Sides Mountain,2625,8612,-107.0598,40.5612,-107.0598,40.5612,2,0,01/08/2011,31/12/2099,0,,
W0C/MZ-073,USA - Colorado,CO-Mt Zirkel WA,Diamond Mountain,2617,8587,-108.9422,40.7096,-108.9422,40.7096,2,0,01/08/2011,31/12/2099,0,,
W0C/MZ-074,USA - Colorado,CO-Mt Zirkel WA,Limestone Ridge,2615,8581,-108.9187,40.6076,-108.9187,40.6076,2,0,01/08/2011,31/12/2099,0,,
W0C/MZ-075,USA - Colorado,CO-Mt Zirkel WA,Buena Vista Peak,2615,8580,-108.9251,40.4408,-108.9251,40.4408,2,0,01/08/2011,31/12/2099,1,03/06/2017,N0BN
W0C/MZ-076,USA - Colorado,CO-Mt Zirkel WA,Squaw Mountain,2605,8545,-107.2301,40.9776,-107.2301,40.9776,2,0,01/08/2011,31/12/2099,1,14/05/2022,KE0FAN
W0C/MZ-077,USA - Colorado,CO-Mt Zirkel WA,Diamond Benchmark,2604,8542,-108.9533,40.7322,-108.9533,40.7322,2,0,01/08/2011,31/12/2099,0,,
W0C/MZ-078,USA - Colorado,CO-Mt Zirkel WA,Bible Back Mountain,2598,8523,-107.3549,40.9461,-107.3549,40.9461,2,0,01/08/2011,31/12/2099,0,,
W0C/MZ-079,USA - Colorado,CO-Mt Zirkel WA,Twin Buttes,2594,8512,-107.2077,40.969,-107.2077,40.969,2,0,01/08/2011,31/12/2099,0,,
W0C/MZ-080,USA - Colorado,CO-Mt Zirkel WA,Moose Head Mountain,2589,8495,-108.8635,40.3171,-108.8635,40.3171,2,0,01/08/2011,31/12/2099,0,,
W0C/MZ-081,USA - Colorado,CO-Mt Zirkel WA,West Gibraltar Peak,2576,8452,-107.2483,40.9266,-107.2483,40.9266,2,0,01/08/2011,31/12/2099,0,,
W0C/MZ-082,USA - Colorado,CO-Mt Zirkel WA,Copper Ridge,2571,8436,-106.8397,40.5464,-106.8397,40.5464,2,0,01/08/2011,31/12/2099,2,30/09/2024,N0DET
W0C/MZ-083,USA - Colorado,CO-Mt Zirkel WA,Camel Back Mountain,2567,8422,-107.3405,40.9463,-107.3405,40.9463,2,0,01/08/2011,31/12/2099,0,,
W0C/MZ-084,USA - Colorado,CO-Mt Zirkel WA,8420,2566,8420,-107.4741,40.2984,-107.4741,40.2984,2,0,01/08/2011,31/12/2099,0,,
W0C/MZ-085,USA - Colorado,CO-Mt Zirkel WA,Beaver Mountain,2564,8411,-107.1783,40.9588,-107.1783,40.9588,2,0,01/08/2011,31/12/2099,0,,
W0C/MZ-086,USA - Colorado,CO-Mt Zirkel WA,Williams Benchmark,2538,8327,-107.3689,40.3539,-107.3689,40.3539,2,0,01/08/2011,31/12/2099,0,,
W0C/MZ-087,USA - Colorado,CO-Mt Zirkel WA,8322,2537,8322,-107.1549,40.3494,-107.1549,40.3494,2,0,01/08/2011,31/12/2099,0,,
W0C/MZ-088,USA - Colorado,CO-Mt Zirkel WA,8272,2521,8272,-109.0393,40.7788,-109.0393,40.7788,2,0,01/08/2011,31/12/2099,0,,
W0C/MZ-089,USA - Colorado,CO-Mt Zirkel WA,Gray Hills,2518,8260,-108.0963,40.2239,-108.0963,40.2239,2,0,01/08/2011,31/12/2099,0,,
W0C/MZ-090,USA - Colorado,CO-Mt Zirkel WA,Quarry Mountain,2518,8260,-106.8724,40.4639,-106.8724,40.4639,2,0,01/08/2011,31/12/2099,3,15/06/2019,KD0YOB
W0C/MZ-091,USA - Colorado,CO-Mt Zirkel WA,Thornburgh Mountain,2516,8255,-107.7085,40.231,-107.7085,40.231,2,0,01/08/2011,31/12/2099,0,,
W0C/MZ-092,USA - Colorado,CO-Mt Zirkel WA,Sand Mountain,2516,8253,-107.0877,40.5521,-107.0877,40.5521,2,0,01/08/2011,31/12/2099,0,,
W0C/MZ-093,USA - Colorado,CO-Mt Zirkel WA,8196,2498,8196,-108.7297,40.3341,-108.7297,40.3341,2,0,01/08/2011,31/12/2099,0,,
W0C/MZ-094,USA - Colorado,CO-Mt Zirkel WA,Offield Mountain,2492,8175,-108.9562,40.6833,-108.9562,40.6833,2,0,01/08/2011,31/12/2099,0,,
W0C/MZ-095,USA - Colorado,CO-Mt Zirkel WA,8138,2480,8138,-108.9946,40.7485,-108.9946,40.7485,2,0,01/08/2011,31/12/2099,0,,
W0C/MZ-096,USA - Colorado,CO-Mt Zirkel WA,Lookout Mountain,2475,8120,-108.4837,40.8641,-108.4837,40.8641,2,0,01/08/2011,31/12/2099,0,,
W0C/MZ-097,USA - Colorado,CO-Mt Zirkel WA,Chavez Benchmark,2471,8106,-107.0927,40.4294,-107.0927,40.4294,2,0,01/08/2011,31/12/2099,0,,
W0C/MZ-098,USA - Colorado,CO-Mt Zirkel WA,Round Mountain,2469,8102,-106.9242,40.6887,-106.9242,40.6887,2,0,01/08/2011,31/12/2099,0,,
W0C/MZ-099,USA - Colorado,CO-Mt Zirkel WA,Perusek Benchmark,2459,8067,-108.7505,40.5645,-108.7505,40.5645,2,0,01/08/2011,31/12/2099,0,,
W0C/MZ-100,USA - Colorado,CO-Mt Zirkel WA,8047,2453,8047,-109.0358,40.7918,-109.0358,40.7918,2,0,01/08/2011,31/12/2099,0,,
W0C/MZ-101,USA - Colorado,CO-Mt Zirkel WA,Escarpment Peak,2444,8020,-108.1281,40.2977,-108.1281,40.2977,2,0,01/08/2011,31/12/2099,0,,
W0C/MZ-102,USA - Colorado,CO-Mt Zirkel WA,Allred Peak,2432,7980,-108.5558,40.5271,-108.5558,40.5271,1,0,01/08/2011,31/12/2099,0,,
W0C/MZ-103,USA - Colorado,CO-Mt Zirkel WA,Juniper Mountain,2400,7874,-108.0295,40.4494,-108.0295,40.4494,1,0,01/08/2011,31/12/2099,0,,
W0C/MZ-104,USA - Colorado,CO-Mt Zirkel WA,Tepee Benchmark,2386,7828,-108.6554,40.5341,-108.6554,40.5341,1,0,01/08/2011,31/12/2099,0,,
W0C/MZ-105,USA - Colorado,CO-Mt Zirkel WA,Cross Mountain,2379,7804,-108.3816,40.5221,-108.3816,40.5221,1,0,01/08/2011,31/12/2099,0,,
W0C/MZ-106,USA - Colorado,CO-Mt Zirkel WA,North Bears Ears,2350,7710,-108.622,40.7499,-108.622,40.7499,1,0,01/08/2011,31/12/2099,0,,
W0C/MZ-107,USA - Colorado,CO-Mt Zirkel WA,Wapiti Peak,2350,7710,-108.2808,40.374,-108.2808,40.374,1,0,01/08/2011,31/12/2099,0,,
W0C/MZ-108,USA - Colorado,CO-Mt Zirkel WA,7700,2347,7700,-106.9105,40.5737,-106.9105,40.5737,1,0,01/08/2011,31/12/2099,0,,
W0C/MZ-109,USA - Colorado,CO-Mt Zirkel WA,7684,2342,7684,-108.5203,40.5211,-108.5203,40.5211,1,0,01/08/2011,31/12/2099,0,,
W0C/MZ-110,USA - Colorado,CO-Mt Zirkel WA,7670,2338,7670,-108.9767,40.6089,-108.9767,40.6089,1,0,01/08/2011,31/12/2099,0,,
W0C/MZ-111,USA - Colorado,CO-Mt Zirkel WA,7660,2335,7660,-108.912,40.6901,-108.912,40.6901,1,0,01/08/2011,31/12/2099,0,,
W0C/MZ-112,USA - Colorado,CO-Mt Zirkel WA,7589,2313,7589,-108.8649,40.6677,-108.8649,40.6677,1,0,01/08/2011,31/12/2099,0,,
W0C/MZ-113,USA - Colorado,CO-Mt Zirkel WA,Black Ridge,2310,7580,-108.9417,40.6544,-108.9417,40.6544,1,0,01/08/2011,31/12/2099,0,,
W0C/MZ-114,USA - Colorado,CO-Mt Zirkel WA,7580,2310,7580,-107.2447,40.5561,-107.2447,40.5561,1,0,01/08/2011,31/12/2099,0,,
W0C/MZ-115,USA - Colorado,CO-Mt Zirkel WA,Iles Mountain,2298,7540,-107.6709,40.3716,-107.6709,40.3716,1,0,01/08/2011,31/12/2099,0,,
W0C/MZ-116,USA - Colorado,CO-Mt Zirkel WA,Cedar Mountain,2293,7524,-107.6083,40.5763,-107.6083,40.5763,1,0,01/08/2011,31/12/2099,3,31/10/2021,KD0YOB
W0C/MZ-117,USA - Colorado,CO-Mt Zirkel WA,West Vermillion Bluffs,2292,7519,-108.55,40.8454,-108.55,40.8454,1,0,01/08/2011,31/12/2099,0,,
W0C/MZ-118,USA - Colorado,CO-Mt Zirkel WA,7510,2289,7510,-107.071,40.3547,-107.071,40.3547,1,0,01/08/2011,31/12/2099,0,,
W0C/MZ-119,USA - Colorado,CO-Mt Zirkel WA,7509,2289,7509,-108.8929,40.6839,-108.8929,40.6839,1,0,01/08/2011,31/12/2099,0,,
W0C/MZ-121,USA - Colorado,CO-Mt Zirkel WA,7425,2263,7425,-108.7245,40.8212,-108.7245,40.8212,1,0,01/08/2011,31/12/2099,0,,
W0C/MZ-122,USA - Colorado,CO-Mt Zirkel WA,Deer Mountain,2263,7425,-106.8962,40.5332,-106.8962,40.5332,1,0,01/08/2011,31/12/2099,0,,
W0C/MZ-123,USA - Colorado,CO-Mt Zirkel WA,7420,2262,7420,-108.9619,40.754,-108.9619,40.754,1,0,01/08/2011,31/12/2099,0,,
W0C/MZ-124,USA - Colorado,CO-Mt Zirkel WA,7312,2229,7312,-108.7235,40.795,-108.7235,40.795,1,0,01/08/2011,31/12/2099,0,,
W0C/MZ-125,USA - Colorado,CO-Mt Zirkel WA,Elk Springs Ridge,2218,7277,-108.3718,40.3635,-108.3718,40.3635,1,0,01/08/2011,31/12/2099,0,,
W0C/MZ-126,USA - Colorado,CO-Mt Zirkel WA,7259,2213,7259,-107.6428,40.3094,-107.6428,40.3094,1,0,01/08/2011,31/12/2099,0,,
W0C/MZ-127,USA - Colorado,CO-Mt Zirkel WA,Monument Butte,2209,7248,-107.6621,40.2984,-107.6621,40.2984,1,0,01/08/2011,31/12/2099,0,,
W0C/MZ-128,USA - Colorado,CO-Mt Zirkel WA,Godiva Rim,2208,7243,-108.2156,40.6141,-108.2156,40.6141,1,0,01/08/2011,31/12/2099,1,11/09/2014,WS0TA
W0C/MZ-129,USA - Colorado,CO-Mt Zirkel WA,Bald Mountain,2203,7228,-108.1197,40.6835,-108.1197,40.6835,1,0,01/08/2011,31/12/2099,0,,
W0C/MZ-130,USA - Colorado,CO-Mt Zirkel WA,North Pinyon Ridge,2167,7110,-108.3929,40.296,-108.3929,40.296,1,0,01/08/2011,31/12/2099,0,,
W0C/MZ-131,USA - Colorado,CO-Mt Zirkel WA,Duffy Mountain,2164,7100,-107.7685,40.3691,-107.7685,40.3691,1,0,01/08/2011,31/12/2099,0,,
W0C/MZ-132,USA - Colorado,CO-Mt Zirkel WA,7071,2155,7071,-108.9153,40.5296,-108.9153,40.5296,1,0,01/08/2011,31/12/2099,0,,
W0C/MZ-133,USA - Colorado,CO-Mt Zirkel WA,6975,2126,6975,-108.7569,40.2824,-108.7569,40.2824,1,0,01/08/2011,31/12/2099,0,,
W0C/MZ-134,USA - Colorado,CO-Mt Zirkel WA,6968,2124,6968,-107.6743,40.433,-107.6743,40.433,1,0,01/08/2011,31/12/2099,0,,
W0C/MZ-135,USA - Colorado,CO-Mt Zirkel WA,South Cross Mountain,2082,6830,-108.3444,40.4571,-108.3444,40.4571,1,0,01/08/2011,31/12/2099,0,,
W0C/MZ-136,USA - Colorado,CO-Mt Zirkel WA,Warm Springs Cliff,2079,6820,-108.9299,40.5277,-108.9299,40.5277,1,0,01/08/2011,31/12/2099,0,,
W0C/MZ-137,USA - Colorado,CO-Mt Zirkel WA,6820,2079,6820,-107.8236,40.446,-107.8236,40.446,1,0,01/08/2011,31/12/2099,0,,
W0C/MZ-138,USA - Colorado,CO-Mt Zirkel WA,Lone Mountain,2050,6727,-108.4702,40.5754,-108.4702,40.5754,1,0,01/08/2011,31/12/2099,1,11/09/2014,WS0TA
W0C/MZ-139,USA - Colorado,CO-Mt Zirkel WA,6682,2037,6682,-108.92,40.7576,-108.92,40.7576,1,0,01/08/2011,31/12/2099,0,,
W0C/MZ-140,USA - Colorado,CO-Mt Zirkel WA,6340,1932,6340,-108.8755,40.4898,-108.8755,40.4898,1,0,01/08/2011,31/12/2099,0,,
W0C/MZ-141,USA - Colorado,CO-Mt Zirkel WA,Jenny Lind Rock,1859,6100,-108.9739,40.5265,-108.9739,40.5265,1,0,01/08/2011,31/12/2099,0,,
W0C/MZ-142,USA - Colorado,CO-Mt Zirkel WA,8540,2603,8540,-108.8243,40.4289,-108.8243,40.4289,2,0,01/04/2017,31/12/2099,0,,
W0C/MZ-143,USA - Colorado,CO-Mt Zirkel WA,7529,2295,7529,-108.4852,40.5349,-108.4852,40.5349,1,0,01/04/2017,31/12/2099,0,,
W0C/MZ-144,USA - Colorado,CO-Mt Zirkel WA,6799,2072,6799,-108.9125,40.5214,-108.9125,40.5214,1,0,01/04/2017,31/12/2099,0,,
W0C/MZ-145,USA - Colorado,CO-Mt Zirkel WA,Wolf Mountain,2274,7460,-108.1668,40.3711,-108.1668,40.3711,1,0,01/08/2011,31/12/2099,0,,
W0C/PR-001,USA - Colorado,CO-Park Range,Clark Peak,3947,12951,-105.93,40.6067,-105.93,40.6067,8,3,01/05/2010,31/12/2099,4,13/09/2025,KF0QGT
W0C/PR-002,USA - Colorado,CO-Park Range,Mount Richthofen,3947,12951,-105.895,40.4694,-105.895,40.4694,8,3,01/05/2010,31/12/2099,3,26/08/2022,K0MOS
W0C/PR-003,USA - Colorado,CO-Park Range,Byers Peak,3903,12804,-105.9472,39.8644,-105.9472,39.8644,8,3,01/05/2010,31/12/2099,8,21/10/2023,WV0X
W0C/PR-004,USA - Colorado,CO-Park Range,Ute Peak,3750,12303,-106.0772,39.7854,-106.0772,39.7854,6,3,01/05/2010,31/12/2099,3,28/09/2024,K0BH
W0C/PR-005,USA - Colorado,CO-Park Range,Parkview Mountain,3748,12296,-106.1361,40.3303,-106.1361,40.3303,6,3,01/05/2010,31/12/2099,7,16/09/2021,KX0R
W0C/PR-006,USA - Colorado,CO-Park Range,Lulu Mountain,3727,12228,-105.8627,40.4799,-105.8627,40.4799,6,3,01/05/2010,31/12/2099,4,12/08/2023,K0MOS
W0C/PR-007,USA - Colorado,CO-Park Range,Mount Epworth,3610,11843,-105.6952,39.9224,-105.6952,39.9224,6,3,01/05/2010,31/12/2099,6,25/10/2024,WV0X
W0C/PR-008,USA - Colorado,CO-Park Range,Gravel Mountain,3587,11769,-105.9956,40.2751,-105.9956,40.2751,6,3,01/05/2010,31/12/2099,10,05/10/2022,KX0R
W0C/PR-009,USA - Colorado,CO-Park Range,Elk Mountain,3481,11422,-106.1284,40.1619,-106.1284,40.1619,6,3,01/05/2010,31/12/2099,8,29/08/2021,KD0YOB
W0C/PR-010,USA - Colorado,CO-Park Range,Owl Mountain,3340,10957,-106.0426,40.4684,-106.0426,40.4684,6,3,01/05/2010,31/12/2099,25,18/06/2023,KD0YOB
W0C/PR-011,USA - Colorado,CO-Park Range,Hahns Peak,3304,10839,-106.9297,40.8427,-106.9297,40.8427,6,3,01/05/2010,31/12/2099,7,19/08/2025,N1SMB
W0C/PR-012,USA - Colorado,CO-Park Range,Mount Werner,3220,10565,-106.7403,40.4561,-106.7403,40.4561,6,3,01/05/2010,31/12/2099,2,12/09/2025,AA6XA
W0C/PR-013,USA - Colorado,CO-Park Range,Torreys Peak,4349,14267,-105.8211,39.6427,-105.8211,39.6427,10,3,01/08/2011,31/12/2099,24,01/08/2025,WV0X
W0C/PR-014,USA - Colorado,CO-Park Range,Quandary Peak,4348,14265,-106.1063,39.3972,-106.1063,39.3972,10,3,01/08/2011,31/12/2099,12,06/08/2022,W9NDR
W0C/PR-015,USA - Colorado,CO-Park Range,Mount Bierstadt,4285,14060,-105.6687,39.5826,-105.6687,39.5826,10,3,01/08/2011,31/12/2099,48,01/09/2025,W0SKY
W0C/PR-016,USA - Colorado,CO-Park Range,Pacific Peak,4252,13950,-106.1231,39.4231,-106.1231,39.4231,10,3,01/08/2011,31/12/2099,1,06/09/2015,WA6MM
W0C/PR-017,USA - Colorado,CO-Park Range,Crystal Peak,4222,13852,-106.1144,39.4345,-106.1144,39.4345,10,3,01/08/2011,31/12/2099,3,20/07/2025,KF0UFI
W0C/PR-018,USA - Colorado,CO-Park Range,Square Top Mountain,4204,13794,-105.7631,39.5933,-105.7631,39.5933,10,3,01/08/2011,31/12/2099,46,11/09/2025,KF0RIG
W0C/PR-019,USA - Colorado,CO-Park Range,Bald Mountain,4171,13684,-105.9705,39.4448,-105.9705,39.4448,10,3,01/08/2011,31/12/2099,14,18/09/2025,N0IPA
W0C/PR-020,USA - Colorado,CO-Park Range,Gray Wolf Mountain,4146,13602,-105.6606,39.6173,-105.6606,39.6173,10,3,01/08/2011,31/12/2099,28,21/08/2024,WV0X
W0C/PR-021,USA - Colorado,CO-Park Range,Mount Parnassus,4137,13574,-105.8227,39.7202,-105.8227,39.7202,10,3,01/08/2011,31/12/2099,28,27/09/2025,K0TTW
W0C/PR-022,USA - Colorado,CO-Park Range,Grizzly Peak,4093,13427,-105.8487,39.6441,-105.8487,39.6441,8,3,01/08/2011,31/12/2099,20,30/09/2024,WV0X
W0C/PR-023,USA - Colorado,CO-Park Range,Eagles Nest,4090,13420,-106.3504,39.7756,-106.3504,39.7756,8,3,01/08/2011,31/12/2099,0,,
W0C/PR-024,USA - Colorado,CO-Park Range,Mount Wilcox,4087,13408,-105.7569,39.6157,-105.7569,39.6157,8,3,01/08/2011,31/12/2099,21,04/07/2025,WV0X
W0C/PR-025,USA - Colorado,CO-Park Range,Rogers Peak,4082,13391,-105.6176,39.6156,-105.6176,39.6156,8,3,01/08/2011,31/12/2099,52,04/08/2024,NA0MT
W0C/PR-026,USA - Colorado,CO-Park Range,Engelmann Peak,4073,13362,-105.8006,39.7455,-105.8006,39.7455,8,3,01/08/2011,31/12/2099,12,12/07/2025,WV0X
W0C/PR-027,USA - Colorado,CO-Park Range,Mount Silverthorne,4071,13357,-106.1892,39.654,-106.1892,39.654,8,3,01/08/2011,31/12/2099,0,,
W0C/PR-028,USA - Colorado,CO-Park Range,McHenrys Peak,4062,13327,-105.6572,40.2631,-105.6572,40.2631,8,3,01/08/2011,31/12/2099,1,18/09/2021,K0MOS
W0C/PR-029,USA - Colorado,CO-Park Range,Peak G,4042,13260,-106.322,39.7326,-106.322,39.7326,8,3,01/08/2011,31/12/2099,0,,
W0C/PR-030,USA - Colorado,CO-Park Range,Peak Z,4037,13245,-106.2498,39.7142,-106.2498,39.7142,8,3,01/08/2011,31/12/2099,0,,
W0C/PR-031,USA - Colorado,CO-Park Range,Mount Sniktau,4034,13234,-105.8576,39.6785,-105.8576,39.6785,8,3,01/08/2011,31/12/2099,78,01/09/2025,N1SMB
W0C/PR-032,USA - Colorado,CO-Park Range,Peak Q,4033,13230,-106.2867,39.7191,-106.2867,39.7191,8,3,01/08/2011,31/12/2099,0,,
W0C/PR-033,USA - Colorado,CO-Park Range,Peak L,4027,13213,-106.2796,39.7421,-106.2796,39.7421,8,3,01/08/2011,31/12/2099,0,,
W0C/PR-034,USA - Colorado,CO-Park Range,Jacque Peak,4025,13205,-106.1972,39.4549,-106.1972,39.4549,8,3,01/08/2011,31/12/2099,3,31/08/2024,W0SKY
W0C/PR-035,USA - Colorado,CO-Park Range,Red Peak,4020,13189,-106.1711,39.6365,-106.1711,39.6365,8,3,01/08/2011,31/12/2099,1,27/07/2024,K0BH
W0C/PR-036,USA - Colorado,CO-Park Range,Kelso Mountain,4012,13164,-105.8002,39.6589,-105.8002,39.6589,8,3,01/08/2011,31/12/2099,15,01/08/2025,WV0X
W0C/PR-037,USA - Colorado,CO-Park Range,Keller Mountain,3988,13085,-106.2316,39.69,-106.2316,39.69,8,3,01/08/2011,31/12/2099,0,,
W0C/PR-038,USA - Colorado,CO-Park Range,Peak R,3961,12995,-106.2779,39.7216,-106.2779,39.7216,8,3,01/08/2011,31/12/2099,0,,
W0C/PR-039,USA - Colorado,CO-Park Range,Tenmile Peak,3942,12933,-106.1211,39.5358,-106.1211,39.5358,8,3,01/08/2011,31/12/2099,1,31/08/2018,K0BH
W0C/PR-040,USA - Colorado,CO-Park Range,The Elephant,3921,12865,-106.3065,39.7439,-106.3065,39.7439,8,3,01/08/2011,31/12/2099,0,,
W0C/PR-041,USA - Colorado,CO-Park Range,Howard Mountain,3904,12810,-105.8989,40.4269,-105.8989,40.4269,8,3,01/08/2011,31/12/2099,0,,
W0C/PR-042,USA - Colorado,CO-Park Range,Hopi,3895,12780,-105.6738,40.0637,-105.6738,40.0637,8,3,01/08/2011,31/12/2099,0,,
W0C/PR-043,USA - Colorado,CO-Park Range,12763,3890,12763,-105.8726,39.8305,-105.8726,39.8305,8,3,01/08/2011,31/12/2099,1,13/08/2019,KX0R
W0C/PR-044,USA - Colorado,CO-Park Range,Coon Hill,3888,12757,-105.9458,39.6889,-105.9458,39.6889,8,3,01/08/2011,31/12/2099,18,21/08/2025,WV0X
W0C/PR-045,USA - Colorado,CO-Park Range,Sprague Mountain,3875,12713,-105.7364,40.3467,-105.7364,40.3467,8,3,01/08/2011,31/12/2099,3,30/09/2023,K0MOS
W0C/PR-046,USA - Colorado,CO-Park Range,Mount Nimbus,3873,12706,-105.9038,40.3966,-105.9038,40.3966,8,3,01/08/2011,31/12/2099,0,,
W0C/PR-047,USA - Colorado,CO-Park Range,Bills Peak,3872,12703,-105.9627,39.8558,-105.9627,39.8558,8,3,01/08/2011,31/12/2099,2,21/10/2023,WV0X
W0C/PR-048,USA - Colorado,CO-Park Range,Dwarf Pyramid,3860,12664,-106.3251,39.7613,-106.3251,39.7613,8,3,01/08/2011,31/12/2099,0,,
W0C/PR-049,USA - Colorado,CO-Park Range,South Rawah Peak,3854,12644,-105.9558,40.6592,-105.9558,40.6592,8,3,01/08/2011,31/12/2099,1,27/08/2022,K0MOS
W0C/PR-050,USA - Colorado,CO-Park Range,Independence Mountain,3845,12614,-105.91,39.5816,-105.91,39.5816,8,3,01/08/2011,31/12/2099,1,10/10/2015,WA6MM
W0C/PR-051,USA - Colorado,CO-Park Range,Andrews Peak,3830,12565,-105.7098,40.2439,-105.7098,40.2439,8,3,01/08/2011,31/12/2099,1,23/10/2021,K7EEX
W0C/PR-052,USA - Colorado,CO-Park Range,Bowen Mountain,3817,12524,-105.9333,40.3605,-105.9333,40.3605,8,3,01/08/2011,31/12/2099,2,01/09/2024,N0JB
W0C/PR-053,USA - Colorado,CO-Park Range,Ptarmigan Peak,3809,12498,-106.0263,39.6907,-106.0263,39.6907,6,3,01/08/2011,31/12/2099,3,27/09/2025,N0DET
W0C/PR-054,USA - Colorado,CO-Park Range,Mount Mahler,3808,12493,-105.9091,40.4715,-105.9091,40.4715,6,3,01/08/2011,31/12/2099,2,11/08/2023,K0MOS
W0C/PR-055,USA - Colorado,CO-Park Range,Specimen Mountain,3807,12489,-105.8083,40.4447,-105.8083,40.4447,6,3,01/08/2011,31/12/2099,0,,
W0C/PR-056,USA - Colorado,CO-Park Range,Copper Mountain,3792,12441,-106.157,39.4689,-106.157,39.4689,6,3,01/08/2011,31/12/2099,1,07/02/2015,WA6MM
W0C/PR-057,USA - Colorado,CO-Park Range,Hiamovi Mountain,3778,12395,-105.6958,40.1584,-105.6958,40.1584,6,3,01/08/2011,31/12/2099,0,,
W0C/PR-058,USA - Colorado,CO-Park Range,Watanga Mountain,3772,12375,-105.7135,40.1689,-105.7135,40.1689,6,3,01/08/2011,31/12/2099,0,,
W0C/PR-059,USA - Colorado,CO-Park Range,Cascade Mountain,3752,12311,-105.9601,40.3396,-105.9601,40.3396,6,3,01/08/2011,31/12/2099,2,25/09/2022,KX0R
W0C/PR-060,USA - Colorado,CO-Park Range,Snowdrift Peak,3741,12274,-105.7431,40.3103,-105.7431,40.3103,6,3,01/08/2011,31/12/2099,1,04/09/2023,K0MOS
W0C/PR-061,USA - Colorado,CO-Park Range,Iron Mountain,3738,12265,-105.8525,40.5067,-105.8525,40.5067,6,3,01/08/2011,31/12/2099,1,09/09/2015,KX0R
W0C/PR-062,USA - Colorado,CO-Park Range,Paprika Peak,3735,12253,-105.9361,40.3864,-105.9361,40.3864,6,3,01/08/2011,31/12/2099,1,25/09/2021,KX0R
W0C/PR-063,USA - Colorado,CO-Park Range,Nakai Peak,3723,12216,-105.7758,40.3435,-105.7758,40.3435,6,3,01/08/2011,31/12/2099,1,09/08/2020,KX0R
W0C/PR-064,USA - Colorado,CO-Park Range,Mount Zirkel,3712,12180,-106.6631,40.8314,-106.6631,40.8314,6,3,01/08/2011,31/12/2099,1,18/08/2024,NS7I
W0C/PR-065,USA - Colorado,CO-Park Range,Flattop Mountain,3694,12118,-106.6355,40.8047,-106.6355,40.8047,6,3,01/08/2011,31/12/2099,0,,
W0C/PR-066,USA - Colorado,CO-Park Range,12111,3691,12111,-106.0022,39.7325,-106.0022,39.7325,6,3,01/08/2011,31/12/2099,1,11/10/2021,N3ALT
W0C/PR-067,USA - Colorado,CO-Park Range,Mount Cindy,3672,12047,-105.9403,40.4181,-105.9403,40.4181,6,3,01/08/2011,31/12/2099,0,,
W0C/PR-068,USA - Colorado,CO-Park Range,East Twin Peaks,3644,11957,-105.7527,40.1644,-105.7527,40.1644,6,3,01/08/2011,31/12/2099,0,,
W0C/PR-069,USA - Colorado,CO-Park Range,Lost Ranger Peak,3637,11932,-106.6724,40.6905,-106.6724,40.6905,6,3,01/08/2011,31/12/2099,0,,
W0C/PR-070,USA - Colorado,CO-Park Range,Peggy Peak,3637,11931,-106.6306,40.8343,-106.6306,40.8343,6,3,01/08/2011,31/12/2099,0,,
W0C/PR-071,USA - Colorado,CO-Park Range,Mount Ethel,3634,11924,-106.6803,40.648,-106.6803,40.648,6,3,01/08/2011,31/12/2099,1,21/09/2013,KX0R
W0C/PR-072,USA - Colorado,CO-Park Range,North Diamond Peaks,3612,11852,-105.9108,40.5214,-105.9108,40.5214,6,3,01/08/2011,31/12/2099,15,15/06/2025,KM4CFT
W0C/PR-073,USA - Colorado,CO-Park Range,Goosenest,3600,11810,-106.6647,40.8588,-106.6647,40.8588,6,3,01/08/2011,31/12/2099,0,,
W0C/PR-074,USA - Colorado,CO-Park Range,Ptarmigan Peak,3588,11773,-105.948,39.906,-105.948,39.906,6,3,01/08/2011,31/12/2099,7,03/10/2024,KX0R
W0C/PR-075,USA - Colorado,CO-Park Range,Mount Irving Hale,3583,11754,-105.7202,40.1377,-105.7202,40.1377,6,3,01/08/2011,31/12/2099,0,,
W0C/PR-076,USA - Colorado,CO-Park Range,Jackstraw Mountain,3567,11704,-105.8122,40.3874,-105.8122,40.3874,6,3,01/08/2011,31/12/2099,13,04/09/2025,KX0R
W0C/PR-077,USA - Colorado,CO-Park Range,Williams Peak,3541,11617,-106.2063,39.8772,-106.2063,39.8772,6,3,01/08/2011,31/12/2099,2,20/06/2021,N0TZW
W0C/PR-078,USA - Colorado,CO-Park Range,Bear Mountain,3536,11601,-106.6117,40.7828,-106.6117,40.7828,6,3,01/08/2011,31/12/2099,0,,
W0C/PR-079,USA - Colorado,CO-Park Range,Griffith Mountain,3526,11568,-105.6739,39.7017,-105.6739,39.7017,6,3,01/08/2011,31/12/2099,4,19/09/2025,KG0AT
W0C/PR-080,USA - Colorado,CO-Park Range,The Forehead,3518,11543,-106.6565,40.658,-106.6565,40.658,6,3,01/08/2011,31/12/2099,1,21/09/2013,KX0R
W0C/PR-081,USA - Colorado,CO-Park Range,Rabbit Ears Divide Peak,3512,11522,-106.3112,40.33,-106.3112,40.33,6,3,01/08/2011,31/12/2099,1,08/09/2018,KD0YOB
W0C/PR-082,USA - Colorado,CO-Park Range,Mestaahehe Mountain,3505,11500,-105.4939,39.6801,-105.4939,39.6801,6,3,01/08/2011,31/12/2099,175,30/09/2025,WU0A
W0C/PR-083,USA - Colorado,CO-Park Range,Haystack Mountain,3504,11495,-106.1892,40.3272,-106.1892,40.3272,6,3,01/08/2011,31/12/2099,5,28/08/2021,KD0YOB
W0C/PR-084,USA - Colorado,CO-Park Range,Ute Benchmark,3502,11490,-105.6477,39.7257,-105.6477,39.7257,6,3,01/08/2011,31/12/2099,8,19/09/2025,KG0AT
W0C/PR-085,USA - Colorado,CO-Park Range,Mount Patterson,3482,11424,-105.7874,40.3008,-105.7874,40.3008,6,3,01/08/2011,31/12/2099,3,03/08/2020,KX0R
W0C/PR-086,USA - Colorado,CO-Park Range,Davis Peak,3481,11422,-106.7006,40.9205,-106.7006,40.9205,6,3,01/08/2011,31/12/2099,2,10/08/2018,KD0YOB
W0C/PR-087,USA - Colorado,CO-Park Range,Poison Ridge,3480,11417,-106.2478,40.3392,-106.2478,40.3392,6,3,01/08/2011,31/12/2099,8,09/07/2022,KD0YOB
W0C/PR-088,USA - Colorado,CO-Park Range,11362,3463,11362,-106.326,40.3103,-106.326,40.3103,6,3,01/08/2011,31/12/2099,0,,
W0C/PR-089,USA - Colorado,CO-Park Range,Sheep Mountain,3463,11361,-106.2408,40.3088,-106.2408,40.3088,6,3,01/08/2011,31/12/2099,10,03/08/2025,KD0YOB
W0C/PR-090,USA - Colorado,CO-Park Range,South Corral Peaks,3430,11252,-106.1581,40.1962,-106.1581,40.1962,6,3,01/08/2011,31/12/2099,12,30/06/2025,K0MOS
W0C/PR-091,USA - Colorado,CO-Park Range,Radial Mountain,3426,11241,-106.0518,40.3594,-106.0518,40.3594,6,3,01/08/2011,31/12/2099,15,03/09/2025,KX0R
W0C/PR-092,USA - Colorado,CO-Park Range,Gray Jay Mountain,3342,10965,-105.8322,40.3617,-105.8322,40.3617,6,3,01/08/2011,31/12/2099,6,13/10/2024,KX0R
W0C/PR-093,USA - Colorado,CO-Park Range,Buffalo Ridge,3333,10936,-106.715,40.9619,-106.715,40.9619,6,3,01/08/2011,31/12/2099,6,11/09/2022,KD0YOB
W0C/PR-094,USA - Colorado,CO-Park Range,10881,3317,10881,-106.2698,39.928,-106.2698,39.928,6,3,01/08/2011,31/12/2099,2,14/08/2025,W0RTA
W0C/PR-095,USA - Colorado,CO-Park Range,10854,3308,10854,-105.7584,40.0266,-105.7584,40.0266,6,3,01/08/2011,31/12/2099,28,09/09/2025,KX0R
W0C/PR-096,USA - Colorado,CO-Park Range,10833,3302,10833,-106.0926,40.8408,-106.0926,40.8408,6,3,01/08/2011,31/12/2099,0,,
W0C/PR-097,USA - Colorado,CO-Park Range,Dirt Benchmark,3295,10811,-106.6256,40.1713,-106.6256,40.1713,6,3,01/08/2011,31/12/2099,5,04/10/2024,K0MOS
W0C/PR-098,USA - Colorado,CO-Park Range,Swan Mountain,3291,10796,-106.0216,39.5693,-106.0216,39.5693,6,3,01/08/2011,31/12/2099,30,24/09/2025,K5SJC
W0C/PR-099,USA - Colorado,CO-Park Range,Black Mountain,3288,10787,-106.7696,40.9354,-106.7696,40.9354,6,3,01/08/2011,31/12/2099,0,,
W0C/PR-100,USA - Colorado,CO-Park Range,Blue Ridge,3271,10731,-105.9786,39.9544,-105.9786,39.9544,6,3,01/08/2011,31/12/2099,9,26/09/2025,KX0R
W0C/PR-101,USA - Colorado,CO-Park Range,Elmo Benchmark,3259,10692,-106.634,40.4383,-106.634,40.4383,6,3,01/08/2011,31/12/2099,8,22/10/2022,KD0YOB
W0C/PR-102,USA - Colorado,CO-Park Range,Little Haystack Mountain,3256,10681,-106.3809,40.3797,-106.3809,40.3797,6,3,01/08/2011,31/12/2099,3,19/09/2020,KD0YOB
W0C/PR-103,USA - Colorado,CO-Park Range,Sheep Mountain,3253,10671,-105.9216,39.9533,-105.9216,39.9533,6,3,01/08/2011,31/12/2099,12,26/09/2025,KX0R
W0C/PR-104,USA - Colorado,CO-Park Range,10626,3239,10626,-105.7637,40.0592,-105.7637,40.0592,6,3,01/08/2011,31/12/2099,26,09/09/2025,KX0R
W0C/PR-105,USA - Colorado,CO-Park Range,10593,3229,10593,-106.2844,40.2697,-106.2844,40.2697,6,3,01/08/2011,31/12/2099,0,,
W0C/PR-106,USA - Colorado,CO-Park Range,Pass Benchmark,3210,10530,-106.5442,40.0726,-106.5442,40.0726,6,3,01/08/2011,31/12/2099,9,11/07/2024,NM5S
W0C/PR-107,USA - Colorado,CO-Park Range,10450,3185,10450,-105.9838,39.532,-105.9838,39.532,4,3,01/08/2011,31/12/2099,9,28/01/2023,WV0X
W0C/PR-108,USA - Colorado,CO-Park Range,Gould Mountain,3167,10390,-105.9911,40.5231,-105.9911,40.5231,4,3,01/08/2011,31/12/2099,6,21/10/2022,KD0YOB
W0C/PR-109,USA - Colorado,CO-Park Range,Apiatan Mountain,3152,10340,-105.943,40.2476,-105.943,40.2476,4,3,01/08/2011,31/12/2099,10,08/09/2022,AC1Z
W0C/PR-110,USA - Colorado,CO-Park Range,Green Mountain,3143,10313,-105.8222,40.2962,-105.8222,40.2962,4,3,01/08/2011,31/12/2099,8,21/07/2025,KX0R
W0C/PR-111,USA - Colorado,CO-Park Range,La Fevre Ridge,3094,10152,-106.0212,40.408,-106.0212,40.408,4,3,01/08/2011,31/12/2099,6,15/09/2023,KD0YOB
W0C/PR-112,USA - Colorado,CO-Park Range,Whiteley Peak,3083,10115,-106.4934,40.3178,-106.4934,40.3178,4,3,01/08/2011,31/12/2099,0,,
W0C/PR-113,USA - Colorado,CO-Park Range,Granby Peak,3049,10004,-105.804,40.1138,-105.804,40.1138,4,3,01/08/2011,31/12/2099,5,21/06/2021,KX0R
W0C/PR-114,USA - Colorado,CO-Park Range,Bald Mountain,3046,9994,-105.5546,39.7925,-105.5546,39.7925,4,3,01/08/2011,31/12/2099,59,01/02/2023,N0MTN
W0C/PR-115,USA - Colorado,CO-Park Range,Green Ridge,3042,9979,-106.2406,40.4137,-106.2406,40.4137,4,3,01/08/2011,31/12/2099,10,17/08/2024,KD0YOB
W0C/PR-116,USA - Colorado,CO-Park Range,Slide Mountain,3030,9940,-106.2262,40.1429,-106.2262,40.1429,4,3,01/08/2011,31/12/2099,8,23/09/2023,KD0YOB
W0C/PR-117,USA - Colorado,CO-Park Range,9905,3019,9905,-106.0134,40.0554,-106.0134,40.0554,4,3,01/08/2011,31/12/2099,1,24/10/2017,KX0R
W0C/PR-118,USA - Colorado,CO-Park Range,Mount Pence,3018,9903,-105.4265,39.6765,-105.4265,39.6765,4,3,01/08/2011,31/12/2099,95,24/07/2025,WX8V
W0C/PR-119,USA - Colorado,CO-Park Range,9900,3018,9900,-105.8222,40.0663,-105.8222,40.0663,4,3,01/08/2011,31/12/2099,1,12/10/2017,KX0R
W0C/PR-120,USA - Colorado,CO-Park Range,Dice Hill,3003,9853,-106.4393,39.9349,-106.4393,39.9349,4,3,01/08/2011,31/12/2099,2,24/09/2023,N3ALT
W0C/PR-121,USA - Colorado,CO-Park Range,Bear Mountain,3001,9845,-106.5347,40.365,-106.5347,40.365,4,3,01/08/2011,31/12/2099,0,,
W0C/PR-122,USA - Colorado,CO-Park Range,Independence Mountain,2986,9796,-106.4458,40.9182,-106.4458,40.9182,4,3,01/08/2011,31/12/2099,40,20/09/2024,KD0YOB
W0C/PR-123,USA - Colorado,CO-Park Range,9726,2964,9726,-106.5932,40.9229,-106.5932,40.9229,4,3,01/08/2011,31/12/2099,9,16/09/2023,KD0YOB
W0C/PR-124,USA - Colorado,CO-Park Range,Bull Mountain,2959,9708,-106.0062,40.5672,-106.0062,40.5672,4,3,01/08/2011,31/12/2099,9,06/11/2022,KD0YOB
W0C/PR-125,USA - Colorado,CO-Park Range,Ninemile Mountain,2951,9681,-105.9531,39.9983,-105.9531,39.9983,4,3,01/08/2011,31/12/2099,10,07/08/2025,KX0R
W0C/PR-126,USA - Colorado,CO-Park Range,Spicer Peak,2946,9664,-106.3958,40.4454,-106.3958,40.4454,4,3,01/08/2011,31/12/2099,0,,
W0C/PR-127,USA - Colorado,CO-Park Range,9525,2903,9525,-106.3497,40.2793,-106.3497,40.2793,4,3,01/08/2011,31/03/2017,0,,
W0C/PR-128,USA - Colorado,CO-Park Range,9427,2873,9427,-106.4079,40.9177,-106.4079,40.9177,4,3,01/08/2011,31/12/2099,6,03/10/2021,KD0YOB
W0C/PR-129,USA - Colorado,CO-Park Range,Sheep Mountain,2872,9422,-106.5078,40.7714,-106.5078,40.7714,4,3,01/08/2011,31/12/2099,6,03/07/2021,KD0YOB
W0C/PR-130,USA - Colorado,CO-Park Range,San Toy Mountain,2871,9420,-106.4424,40.0025,-106.4424,40.0025,4,3,01/08/2011,31/12/2099,0,,
W0C/PR-131,USA - Colorado,CO-Park Range,9398,2865,9398,-105.9,40.0187,-105.9,40.0187,4,3,01/08/2011,31/12/2099,1,18/08/2024,AD8IS
W0C/PR-132,USA - Colorado,CO-Park Range,Tyler Mountain,2857,9373,-106.5187,40.1961,-106.5187,40.1961,4,3,01/08/2011,31/12/2099,0,,
W0C/PR-133,USA - Colorado,CO-Park Range,North Mexican Ridge,2856,9370,-106.5541,40.4997,-106.5541,40.4997,4,3,01/08/2011,31/12/2099,0,,
W0C/PR-134,USA - Colorado,CO-Park Range,Trail Mountain,2859,9380,-105.9646,40.1899,-105.9646,40.1899,4,3,01/08/2011,31/12/2099,1,27/07/2024,N0IPA
W0C/PR-135,USA - Colorado,CO-Park Range,9328,2843,9328,-105.8494,40.082,-105.8494,40.082,4,3,01/08/2011,31/12/2099,0,,
W0C/PR-136,USA - Colorado,CO-Park Range,Buffalo Ridge,2838,9312,-106.2921,40.4832,-106.2921,40.4832,4,3,01/08/2011,31/12/2099,0,,
W0C/PR-137,USA - Colorado,CO-Park Range,Delaney Butte,2837,9307,-106.4867,40.7015,-106.4867,40.7015,4,3,01/08/2011,31/12/2099,11,25/09/2022,KD0YOB
W0C/PR-138,USA - Colorado,CO-Park Range,Pinkham Mountain,2825,9270,-106.2504,40.9361,-106.2504,40.9361,4,3,01/08/2011,31/12/2099,27,16/08/2024,KD0YOB
W0C/PR-139,USA - Colorado,CO-Park Range,Pole Mountain,2815,9234,-106.4817,40.5228,-106.4817,40.5228,4,3,01/08/2011,31/12/2099,0,,
W0C/PR-140,USA - Colorado,CO-Park Range,Wolford Mountain,2799,9182,-106.3914,40.1181,-106.3914,40.1181,4,3,01/08/2011,31/12/2099,3,22/06/2025,K0MOS/P
W0C/PR-141,USA - Colorado,CO-Park Range,9180,2798,9180,-105.9871,40.14,-105.9871,40.14,4,3,01/08/2011,31/12/2099,1,06/08/2016,KN6SB
W0C/PR-142,USA - Colorado,CO-Park Range,Sentinel Mountain,2768,9082,-106.2625,40.897,-106.2625,40.897,4,3,01/08/2011,31/12/2099,17,02/03/2025,KK7SUU
W0C/PR-143,USA - Colorado,CO-Park Range,Lawson Ridge,2763,9065,-106.3305,39.9794,-106.3305,39.9794,4,3,01/08/2011,31/12/2099,0,,
W0C/PR-144,USA - Colorado,CO-Park Range,Green Ridge,2747,9012,-105.8331,40.1878,-105.8331,40.1878,4,3,01/08/2011,31/12/2099,4,24/07/2018,KX0R
W0C/PR-145,USA - Colorado,CO-Park Range,8862,2701,8862,-106.3517,40.2066,-106.3517,40.2066,2,0,01/08/2011,31/12/2099,0,,
W0C/PR-146,USA - Colorado,CO-Park Range,Junction Butte,2671,8764,-106.3525,40.0283,-106.3525,40.0283,2,0,01/08/2011,31/12/2099,1,15/11/2018,KX0R
W0C/PR-147,USA - Colorado,CO-Park Range,Watson Mountain,2653,8704,-106.334,40.9194,-106.334,40.9194,2,0,01/08/2011,31/12/2099,5,01/08/2021,KD0YOB
W0C/PR-148,USA - Colorado,CO-Park Range,8595,2620,8595,-105.4117,39.7289,-105.4117,39.7289,2,0,01/08/2011,31/12/2099,125,01/10/2025,WX8V
W0C/PR-149,USA - Colorado,CO-Park Range,8373,2552,8373,-106.5695,39.932,-106.5695,39.932,2,0,01/08/2011,31/12/2099,0,,
W0C/PR-150,USA - Colorado,CO-Park Range,Floyd Benchmark,2509,8232,-105.4213,39.7459,-105.4213,39.7459,2,0,01/08/2011,31/12/2099,0,,
W0C/PR-151,USA - Colorado,CO-Park Range,12386,3775,12386,-105.9245,40.5816,-105.9245,40.5816,6,3,01/04/2017,31/12/2099,2,10/08/2023,K0MOS
W0C/PR-152,USA - Colorado,CO-Park Range,11820,3603,11820,-106.6476,40.774,-106.6476,40.774,6,3,01/04/2017,31/12/2099,0,,
W0C/PR-153,USA - Colorado,CO-Park Range,Sheep Mountain,3602,11819,-106.2656,40.361,-106.2656,40.361,6,3,01/04/2017,31/12/2099,4,05/09/2020,KD0YOB
W0C/PR-154,USA - Colorado,CO-Park Range,9660,2944,9660,-106.3339,40.2504,-106.3339,40.2504,4,3,01/04/2017,31/12/2099,0,,
W0C/PR-155,USA - Colorado,CO-Park Range,Table Mountain,2701,8860,-105.9043,40.1632,-105.9043,40.1632,2,0,01/04/2017,31/12/2099,4,09/08/2019,KX0R
W0C/PR-156,USA - Colorado,CO-Park Range,8420,2566,8420,-106.2207,40.0373,-106.2207,40.0373,2,0,01/04/2017,31/12/2099,2,15/11/2018,KX0R
W0C/RG-001,USA - Colorado,CO-Rio Grande,Uncompahgre Peak,4361,14309,-107.4621,38.0716,-107.4621,38.0716,10,3,01/08/2011,31/12/2099,9,31/07/2025,KK7TYO
W0C/RG-002,USA - Colorado,CO-Rio Grande,Redcloud Peak,4278,14034,-107.4217,37.9409,-107.4217,37.9409,10,3,01/08/2011,31/12/2099,5,12/07/2025,KF0QGT
W0C/RG-003,USA - Colorado,CO-Rio Grande,Wetterhorn Peak,4272,14015,-107.5109,38.0607,-107.5109,38.0607,10,3,01/08/2011,31/12/2099,3,13/10/2024,KK7TYO
W0C/RG-004,USA - Colorado,CO-Rio Grande,Sunshine Peak,4268,14001,-107.4254,37.9227,-107.4254,37.9227,10,3,01/08/2011,31/12/2099,5,12/07/2025,KF0QGT
W0C/RG-005,USA - Colorado,CO-Rio Grande,Phoenix Peak,4235,13895,-106.8663,37.9363,-106.8663,37.9363,10,3,01/08/2011,31/12/2099,0,,
W0C/RG-006,USA - Colorado,CO-Rio Grande,Jones Mountain,4225,13860,-107.5264,37.8965,-107.5264,37.8965,10,3,01/08/2011,31/12/2099,0,,
W0C/RG-007,USA - Colorado,CO-Rio Grande,13832,4216,13832,-107.3982,37.9472,-107.3982,37.9472,10,3,01/08/2011,31/12/2099,0,,
W0C/RG-008,USA - Colorado,CO-Rio Grande,Rio Grande Pyramid,4213,13821,-107.3924,37.6796,-107.3924,37.6796,10,3,01/08/2011,31/12/2099,0,,
W0C/RG-009,USA - Colorado,CO-Rio Grande,13811,4210,13811,-107.3783,37.9546,-107.3783,37.9546,10,3,01/08/2011,31/12/2099,0,,
W0C/RG-010,USA - Colorado,CO-Rio Grande,Niagara Peak,4208,13807,-107.5336,37.8892,-107.5336,37.8892,10,3,01/08/2011,31/12/2099,0,,
W0C/RG-011,USA - Colorado,CO-Rio Grande,Pole Creek Mountain,4181,13716,-107.4306,37.7958,-107.4306,37.7958,10,3,01/08/2011,31/12/2099,0,,
W0C/RG-012,USA - Colorado,CO-Rio Grande,Silver Mountain,4180,13714,-107.4496,38.1067,-107.4496,38.1067,10,3,01/08/2011,31/12/2099,0,,
W0C/RG-013,USA - Colorado,CO-Rio Grande,13681,4170,13681,-107.4576,38.1204,-107.4576,38.1204,10,3,01/08/2011,31/12/2099,0,,
W0C/RG-014,USA - Colorado,CO-Rio Grande,Quarter Peak,4168,13674,-107.458,37.8809,-107.458,37.8809,10,3,01/08/2011,31/12/2099,0,,
W0C/RG-015,USA - Colorado,CO-Rio Grande,Northwest Pole,4164,13660,-107.4464,37.8141,-107.4464,37.8141,10,3,01/08/2011,31/12/2099,0,,
W0C/RG-016,USA - Colorado,CO-Rio Grande,Carson Peak,4163,13657,-107.402,37.8574,-107.402,37.8574,10,3,01/08/2011,31/12/2099,0,,
W0C/RG-017,USA - Colorado,CO-Rio Grande,Coxcomb Peak,4162,13656,-107.5335,38.0801,-107.5335,38.0801,10,3,01/08/2011,31/12/2099,0,,
W0C/RG-018,USA - Colorado,CO-Rio Grande,Redcliff,4158,13642,-107.5331,38.0872,-107.5331,38.0872,10,3,01/08/2011,31/12/2099,0,,
W0C/RG-019,USA - Colorado,CO-Rio Grande,Matterhorn Peak,4142,13590,-107.496,38.0651,-107.496,38.0651,10,3,01/08/2011,31/12/2099,1,29/07/2024,WV0X
W0C/RG-020,USA - Colorado,CO-Rio Grande,13581,4139,13581,-107.3955,37.8367,-107.3955,37.8367,10,3,01/08/2011,31/12/2099,0,,
W0C/RG-021,USA - Colorado,CO-Rio Grande,Gudy Peak,4135,13566,-107.4604,37.9746,-107.4604,37.9746,10,3,01/08/2011,31/12/2099,0,,
W0C/RG-022,USA - Colorado,CO-Rio Grande,Whitecross Mountain,4128,13542,-107.4933,37.9307,-107.4933,37.9307,10,3,01/08/2011,31/12/2099,1,09/08/2021,W0ADV
W0C/RG-023,USA - Colorado,CO-Rio Grande,13540,4127,13540,-107.4957,37.9617,-107.4957,37.9617,10,3,01/08/2011,31/12/2099,0,,
W0C/RG-024,USA - Colorado,CO-Rio Grande,13535,4125,13535,-107.5324,37.9179,-107.5324,37.9179,10,3,01/08/2011,31/12/2099,0,,
W0C/RG-025,USA - Colorado,CO-Rio Grande,13510,4118,13510,-107.0706,37.9663,-107.0706,37.9663,10,3,01/08/2011,31/12/2099,0,,
W0C/RG-026,USA - Colorado,CO-Rio Grande,Ute Ridge,4101,13455,-107.4576,37.7111,-107.4576,37.7111,8,3,01/08/2011,31/12/2099,0,,
W0C/RG-027,USA - Colorado,CO-Rio Grande,Baldy Cinco,4079,13383,-107.103,37.9555,-107.103,37.9555,8,3,01/08/2011,31/12/2099,1,20/07/2022,KF0AUK
W0C/RG-028,USA - Colorado,CO-Rio Grande,13342,4067,13342,-107.4806,37.7019,-107.4806,37.7019,8,3,01/08/2011,31/12/2099,0,,
W0C/RG-029,USA - Colorado,CO-Rio Grande,13340,4066,13340,-107.4961,38.0986,-107.4961,38.0986,8,3,01/08/2011,31/12/2099,0,,
W0C/RG-030,USA - Colorado,CO-Rio Grande,Coney Benchmark,4064,13334,-107.3469,37.8603,-107.3469,37.8603,8,3,01/08/2011,31/12/2099,0,,
W0C/RG-031,USA - Colorado,CO-Rio Grande,Sunshine Mountain,4060,13321,-107.5087,37.9958,-107.5087,37.9958,8,3,01/08/2011,31/12/2099,0,,
W0C/RG-032,USA - Colorado,CO-Rio Grande,13300,4054,13300,-106.9424,37.9535,-106.9424,37.9535,8,3,01/08/2011,31/12/2099,0,,
W0C/RG-033,USA - Colorado,CO-Rio Grande,Fools Pyramid,4047,13278,-107.3748,37.6877,-107.3748,37.6877,8,3,01/08/2011,31/12/2099,0,,
W0C/RG-034,USA - Colorado,CO-Rio Grande,Darley Mountain,4042,13260,-107.5881,37.9827,-107.5881,37.9827,8,3,01/08/2011,31/12/2099,3,12/07/2021,K0JJW
W0C/RG-035,USA - Colorado,CO-Rio Grande,Broken Hill,4040,13256,-107.4718,38.043,-107.4718,38.043,8,3,01/08/2011,31/12/2099,0,,
W0C/RG-036,USA - Colorado,CO-Rio Grande,Weminuche Peak,4029,13220,-107.4599,37.6105,-107.4599,37.6105,8,3,01/08/2011,31/12/2099,0,,
W0C/RG-037,USA - Colorado,CO-Rio Grande,13201,4024,13201,-107.525,38.0389,-107.525,38.0389,8,3,01/08/2011,31/12/2099,0,,
W0C/RG-038,USA - Colorado,CO-Rio Grande,13180,4017,13180,-107.3957,37.9965,-107.3957,37.9965,8,3,01/08/2011,31/12/2099,0,,
W0C/RG-039,USA - Colorado,CO-Rio Grande,Conejos Peak,4015,13172,-106.5709,37.2887,-106.5709,37.2887,8,3,01/08/2011,31/12/2099,0,,
W0C/RG-040,USA - Colorado,CO-Rio Grande,South River Peak,4008,13148,-106.9817,37.5741,-106.9817,37.5741,8,3,01/08/2011,31/12/2099,0,,
W0C/RG-041,USA - Colorado,CO-Rio Grande,13111,3996,13111,-106.9872,37.9693,-106.9872,37.9693,8,3,01/08/2011,31/12/2099,0,,
W0C/RG-042,USA - Colorado,CO-Rio Grande,13106,3995,13106,-107.4209,38.0711,-107.4209,38.0711,8,3,01/08/2011,31/12/2099,0,,
W0C/RG-043,USA - Colorado,CO-Rio Grande,13091,3990,13091,-107.3878,38.0726,-107.3878,38.0726,8,3,01/08/2011,31/12/2099,0,,
W0C/RG-044,USA - Colorado,CO-Rio Grande,13034,3973,13034,-107.0083,37.9468,-107.0083,37.9468,8,3,01/08/2011,31/12/2099,0,,
W0C/RG-045,USA - Colorado,CO-Rio Grande,13016,3967,13016,-107.4148,38.1244,-107.4148,38.1244,8,3,01/08/2011,31/12/2099,0,,
W0C/RG-046,USA - Colorado,CO-Rio Grande,Chief Mountain,3967,13014,-107.209,37.6364,-107.209,37.6364,8,3,01/08/2011,31/12/2099,0,,
W0C/RG-047,USA - Colorado,CO-Rio Grande,13010,3965,13010,-107.2446,37.6061,-107.2446,37.6061,8,3,01/08/2011,31/12/2099,0,,
W0C/RG-048,USA - Colorado,CO-Rio Grande,Mesa Lato,3959,12988,-107.3996,37.6003,-107.3996,37.6003,8,3,01/08/2011,31/12/2099,0,,
W0C/RG-049,USA - Colorado,CO-Rio Grande,12952,3948,12952,-107.0311,37.9525,-107.0311,37.9525,8,3,01/08/2011,31/12/2099,0,,
W0C/RG-050,USA - Colorado,CO-Rio Grande,12917,3937,12917,-107.5022,38.1338,-107.5022,38.1338,8,3,01/08/2011,31/12/2099,0,,
W0C/RG-051,USA - Colorado,CO-Rio Grande,Ute Benchmark,3929,12892,-107.4239,37.6502,-107.4239,37.6502,8,3,01/08/2011,31/12/2099,0,,
W0C/RG-052,USA - Colorado,CO-Rio Grande,12882,3926,12882,-107.4406,37.6103,-107.4406,37.6103,8,3,01/08/2011,31/12/2099,0,,
W0C/RG-053,USA - Colorado,CO-Rio Grande,Table Mountain,3922,12868,-107.0509,37.8981,-107.0509,37.8981,8,3,01/08/2011,31/12/2099,0,,
W0C/RG-054,USA - Colorado,CO-Rio Grande,Fisher Mountain,3921,12865,-106.9375,37.6569,-106.9375,37.6569,8,3,01/08/2011,31/12/2099,0,,
W0C/RG-055,USA - Colorado,CO-Rio Grande,12848,3916,12848,-107.026,37.5008,-107.026,37.5008,8,3,01/08/2011,31/12/2099,0,,
W0C/RG-056,USA - Colorado,CO-Rio Grande,Pintada Mountain,3914,12840,-106.4023,37.4967,-106.4023,37.4967,8,3,01/08/2011,31/12/2099,1,05/09/2021,KF0AUK
W0C/RG-057,USA - Colorado,CO-Rio Grande,Mount Hope,3912,12834,-106.8706,37.5435,-106.8706,37.5435,8,3,01/08/2011,31/12/2099,0,,
W0C/RG-058,USA - Colorado,CO-Rio Grande,Red Mountain,3909,12826,-107.3334,37.9786,-107.3334,37.9786,8,3,01/08/2011,31/12/2099,0,,
W0C/RG-059,USA - Colorado,CO-Rio Grande,Mesa Seco,3901,12800,-107.2445,38.0333,-107.2445,38.0333,8,3,01/08/2011,31/12/2099,1,15/08/2020,KF0AUK
W0C/RG-060,USA - Colorado,CO-Rio Grande,12783,3896,12783,-107.1071,37.9791,-107.1071,37.9791,8,3,01/08/2011,31/12/2099,0,,
W0C/RG-061,USA - Colorado,CO-Rio Grande,12780,3895,12780,-107.2806,37.5976,-107.2806,37.5976,8,3,01/08/2011,31/12/2099,0,,
W0C/RG-062,USA - Colorado,CO-Rio Grande,Beautiful Mountain,3890,12764,-106.9274,37.6174,-106.9274,37.6174,8,3,01/08/2011,31/12/2099,0,,
W0C/RG-063,USA - Colorado,CO-Rio Grande,North Mountain,3887,12754,-106.6045,37.4507,-106.6045,37.4507,8,3,01/08/2011,31/12/2099,0,,
W0C/RG-064,USA - Colorado,CO-Rio Grande,Dunsinane Mountain,3884,12742,-107.539,38.1297,-107.539,38.1297,8,3,01/08/2011,31/12/2099,0,,
W0C/RG-065,USA - Colorado,CO-Rio Grande,12740,3883,12740,-107.1635,37.6361,-107.1635,37.6361,8,3,01/08/2011,31/12/2099,0,,
W0C/RG-066,USA - Colorado,CO-Rio Grande,Indian Ridge,3883,12740,-107.4785,37.7352,-107.4785,37.7352,8,3,01/08/2011,31/12/2099,0,,
W0C/RG-067,USA - Colorado,CO-Rio Grande,Bristol Head,3873,12706,-107.055,37.7933,-107.055,37.7933,8,3,01/08/2011,31/12/2099,2,14/10/2024,KK7TYO
W0C/RG-068,USA - Colorado,CO-Rio Grande,12690,3868,12690,-106.6544,37.3419,-106.6544,37.3419,8,3,01/08/2011,31/12/2099,0,,
W0C/RG-069,USA - Colorado,CO-Rio Grande,Velvet Benchmark,3858,12657,-106.6541,37.3076,-106.6541,37.3076,8,3,01/08/2011,31/12/2099,0,,
W0C/RG-070,USA - Colorado,CO-Rio Grande,12645,3854,12645,-107.0126,37.5394,-107.0126,37.5394,8,3,01/08/2011,31/12/2099,0,,
W0C/RG-071,USA - Colorado,CO-Rio Grande,Calf Creek Plateau,3854,12644,-107.2073,38.1264,-107.2073,38.1264,8,3,01/08/2011,31/12/2099,0,,
W0C/RG-072,USA - Colorado,CO-Rio Grande,Pagosa Peak,3853,12640,-107.0667,37.4439,-107.0667,37.4439,8,3,01/08/2011,31/12/2099,0,,
W0C/RG-073,USA - Colorado,CO-Rio Grande,12603,3841,12603,-107.0569,37.4737,-107.0569,37.4737,8,3,01/08/2011,31/12/2099,0,,
W0C/RG-074,USA - Colorado,CO-Rio Grande,Sugarloaf Mountain,3838,12593,-107.092,37.5253,-107.092,37.5253,8,3,01/08/2011,31/12/2099,0,,
W0C/RG-075,USA - Colorado,CO-Rio Grande,12580,3834,12580,-107.0351,37.4754,-107.0351,37.4754,8,3,01/08/2011,31/12/2099,0,,
W0C/RG-076,USA - Colorado,CO-Rio Grande,Cropsy Mountain,3834,12578,-106.5964,37.4088,-106.5964,37.4088,8,3,01/08/2011,31/12/2099,0,,
W0C/RG-077,USA - Colorado,CO-Rio Grande,12555,3827,12555,-106.5231,37.277,-106.5231,37.277,8,3,01/08/2011,31/12/2099,0,,
W0C/RG-078,USA - Colorado,CO-Rio Grande,12550,3825,12550,-106.6746,37.4038,-106.6746,37.4038,8,3,01/08/2011,31/12/2099,0,,
W0C/RG-079,USA - Colorado,CO-Rio Grande,Graham Peak,3819,12531,-107.3762,37.4972,-107.3762,37.4972,8,3,01/08/2011,31/12/2099,0,,
W0C/RG-080,USA - Colorado,CO-Rio Grande,12500,3810,12500,-107.0467,37.5997,-107.0467,37.5997,8,3,01/08/2011,31/12/2099,0,,
W0C/RG-081,USA - Colorado,CO-Rio Grande,Toner Mountain,3808,12495,-107.1103,37.5078,-107.1103,37.5078,6,3,01/08/2011,31/12/2099,0,,
W0C/RG-082,USA - Colorado,CO-Rio Grande,12473,3802,12473,-107.0237,37.4623,-107.0237,37.4623,6,3,01/08/2011,31/12/2099,0,,
W0C/RG-083,USA - Colorado,CO-Rio Grande,Lookout Mountain,3794,12448,-106.5928,37.3895,-106.5928,37.3895,6,3,01/08/2011,31/12/2099,0,,
W0C/RG-084,USA - Colorado,CO-Rio Grande,Borns Benchmark,3780,12401,-106.895,37.5044,-106.895,37.5044,6,3,01/08/2011,31/12/2099,0,,
W0C/RG-085,USA - Colorado,CO-Rio Grande,Del Norte Peak,3780,12400,-106.5634,37.5897,-106.5634,37.5897,6,3,01/08/2011,31/12/2099,0,,
W0C/RG-086,USA - Colorado,CO-Rio Grande,Sheep Mountain,3770,12369,-106.902,37.48,-106.902,37.48,6,3,01/08/2011,31/12/2099,0,,
W0C/RG-087,USA - Colorado,CO-Rio Grande,12334,3759,12334,-107.3031,37.6653,-107.3031,37.6653,6,3,01/08/2011,31/12/2099,0,,
W0C/RG-088,USA - Colorado,CO-Rio Grande,12330,3758,12330,-107.0539,37.5542,-107.0539,37.5542,6,3,01/08/2011,31/12/2099,0,,
W0C/RG-089,USA - Colorado,CO-Rio Grande,Piedra Peak,3758,12328,-107.0188,37.5752,-107.0188,37.5752,6,3,01/08/2011,31/12/2099,0,,
W0C/RG-090,USA - Colorado,CO-Rio Grande,Flag Mountain,3756,12323,-107.3676,37.542,-107.3676,37.542,6,3,01/08/2011,31/12/2099,0,,
W0C/RG-091,USA - Colorado,CO-Rio Grande,71 Mountain,3751,12305,-107.2678,37.9378,-107.2678,37.9378,6,3,01/08/2011,31/12/2099,2,11/10/2024,KK7TYO
W0C/RG-092,USA - Colorado,CO-Rio Grande,Finger Mesa,3749,12300,-107.322,37.7828,-107.322,37.7828,6,3,01/08/2011,31/12/2099,0,,
W0C/RG-093,USA - Colorado,CO-Rio Grande,Cornwall Mountain,3744,12285,-106.492,37.3811,-106.492,37.3811,6,3,01/08/2011,31/12/2099,0,,
W0C/RG-094,USA - Colorado,CO-Rio Grande,Sheepshead,3737,12260,-106.6234,37.3871,-106.6234,37.3871,6,3,01/08/2011,31/12/2099,1,26/06/2025,K0EZE
W0C/RG-095,USA - Colorado,CO-Rio Grande,Turret Ridge,3737,12260,-107.539,38.1453,-107.539,38.1453,6,3,01/08/2011,31/12/2099,0,,
W0C/RG-096,USA - Colorado,CO-Rio Grande,Hogback Mesa,3737,12260,-106.5751,37.5041,-106.5751,37.5041,6,3,01/08/2011,31/12/2099,0,,
W0C/RG-097,USA - Colorado,CO-Rio Grande,Bald Mountain,3735,12255,-107.3348,37.5514,-107.3348,37.5514,6,3,01/08/2011,31/12/2099,0,,
W0C/RG-098,USA - Colorado,CO-Rio Grande,12247,3733,12247,-107.0613,37.5469,-107.0613,37.5469,6,3,01/08/2011,31/12/2099,0,,
W0C/RG-099,USA - Colorado,CO-Rio Grande,Slumgullion Benchmark,3722,12210,-107.2412,37.9656,-107.2412,37.9656,6,3,01/08/2011,31/12/2099,0,,
W0C/RG-100,USA - Colorado,CO-Rio Grande,Flat Benchmark,3715,12187,-106.5213,37.0897,-106.5213,37.0897,6,3,01/08/2011,31/12/2099,1,04/07/2023,W0TRL
W0C/RG-101,USA - Colorado,CO-Rio Grande,Courthouse Mountain,3704,12152,-107.5739,38.135,-107.5739,38.135,6,3,01/08/2011,31/12/2099,2,10/09/2024,K0EZE
W0C/RG-102,USA - Colorado,CO-Rio Grande,Granite Peak,3702,12147,-107.4114,37.4689,-107.4114,37.4689,6,3,01/08/2011,31/12/2099,0,,
W0C/RG-103,USA - Colorado,CO-Rio Grande,Eagle Peak No 2 Benchmark,3699,12137,-107.0093,37.4336,-107.0093,37.4336,6,3,01/08/2011,31/12/2099,0,,
W0C/RG-104,USA - Colorado,CO-Rio Grande,Mineral Mountain,3687,12097,-107.0059,38.0239,-107.0059,38.0239,6,3,01/08/2011,31/12/2099,0,,
W0C/RG-105,USA - Colorado,CO-Rio Grande,Saddle Mountain,3666,12029,-106.958,37.4405,-106.958,37.4405,6,3,01/08/2011,31/12/2099,0,,
W0C/RG-106,USA - Colorado,CO-Rio Grande,Red Mountain,3663,12018,-106.44,37.3442,-106.44,37.3442,6,3,01/08/2011,31/12/2099,0,,
W0C/RG-107,USA - Colorado,CO-Rio Grande,Snowshoe Mountain,3660,12007,-106.9013,37.7497,-106.9013,37.7497,6,3,01/08/2011,31/12/2099,1,09/09/2021,AK6Q
W0C/RG-108,USA - Colorado,CO-Rio Grande,11985,3653,11985,-107.1669,37.5379,-107.1669,37.5379,6,3,01/08/2011,31/12/2099,0,,
W0C/RG-109,USA - Colorado,CO-Rio Grande,Cooper Mountain,3647,11966,-106.8852,37.6996,-106.8852,37.6996,6,3,01/08/2011,31/12/2099,0,,
W0C/RG-110,USA - Colorado,CO-Rio Grande,Trout Mountain,3642,11950,-106.792,37.6631,-106.792,37.6631,6,3,01/08/2011,31/12/2099,0,,
W0C/RG-111,USA - Colorado,CO-Rio Grande,Treasure Mountain,3630,11910,-106.8239,37.4559,-106.8239,37.4559,6,3,01/08/2011,31/12/2099,0,,
W0C/RG-112,USA - Colorado,CO-Rio Grande,Black Mountain,3615,11861,-107.2257,37.8367,-107.2257,37.8367,6,3,01/08/2011,31/12/2099,0,,
W0C/RG-113,USA - Colorado,CO-Rio Grande,11820,3603,11820,-106.717,37.4418,-106.717,37.4418,6,3,01/08/2011,31/12/2099,0,,
W0C/RG-114,USA - Colorado,CO-Rio Grande,11620,3542,11620,-106.6155,37.3697,-106.6155,37.3697,6,3,01/08/2011,31/12/2099,0,,
W0C/RG-115,USA - Colorado,CO-Rio Grande,Klondike Mountain,3524,11561,-106.5795,37.3567,-106.5795,37.3567,6,3,01/08/2011,31/12/2099,0,,
W0C/RG-116,USA - Colorado,CO-Rio Grande,Fox Mountain,3514,11530,-106.7437,37.506,-106.7437,37.506,6,3,01/08/2011,31/12/2099,0,,
W0C/RG-117,USA - Colorado,CO-Rio Grande,Beaver Mountain,3514,11528,-106.6253,37.6011,-106.6253,37.6011,6,3,01/08/2011,31/12/2099,0,,
W0C/RG-118,USA - Colorado,CO-Rio Grande,Mammoth Mountain,3470,11385,-106.5131,37.3364,-106.5131,37.3364,6,3,01/08/2011,31/12/2099,0,,
W0C/RG-119,USA - Colorado,CO-Rio Grande,11300,3444,11300,-106.7335,37.4586,-106.7335,37.4586,6,3,01/08/2011,31/12/2099,0,,
W0C/RG-120,USA - Colorado,CO-Rio Grande,11206,3416,11206,-106.6182,37.5196,-106.6182,37.5196,6,3,01/08/2011,31/12/2099,0,,
W0C/RG-121,USA - Colorado,CO-Rio Grande,Black Mountain,3414,11201,-106.419,37.1748,-106.419,37.1748,6,3,01/08/2011,31/12/2099,0,,
W0C/RG-122,USA - Colorado,CO-Rio Grande,Green Ridge,3402,11163,-106.2822,37.444,-106.2822,37.444,6,3,01/08/2011,31/12/2099,0,,
W0C/RG-123,USA - Colorado,CO-Rio Grande,11153,3399,11153,-106.5145,37.6087,-106.5145,37.6087,6,3,01/08/2011,31/12/2099,0,,
W0C/RG-124,USA - Colorado,CO-Rio Grande,Slide Mountain,3388,11114,-107.4155,37.4327,-107.4155,37.4327,6,3,01/08/2011,31/12/2099,0,,
W0C/RG-125,USA - Colorado,CO-Rio Grande,Elk Mountain,3381,11094,-106.7778,37.7103,-106.7778,37.7103,6,3,01/08/2011,31/12/2099,0,,
W0C/RG-126,USA - Colorado,CO-Rio Grande,Pinorealosa Mountain,3348,10984,-106.3767,37.0603,-106.3767,37.0603,6,3,01/08/2011,31/12/2099,2,19/08/2024,K0EZE
W0C/RG-127,USA - Colorado,CO-Rio Grande,Ribbon Mesa,3326,10912,-106.6773,37.5328,-106.6773,37.5328,6,3,01/08/2011,31/12/2099,0,,
W0C/RG-128,USA - Colorado,CO-Rio Grande,Neff Mountain,3319,10888,-106.4391,37.0301,-106.4391,37.0301,6,3,01/08/2011,31/12/2099,4,08/10/2021,K7GUD
W0C/RG-129,USA - Colorado,CO-Rio Grande,Park Benchmark,3308,10852,-107.2142,37.75,-107.2142,37.75,6,3,01/08/2011,31/12/2099,0,,
W0C/RG-130,USA - Colorado,CO-Rio Grande,Cattle Mountain,3305,10842,-106.6995,37.5731,-106.6995,37.5731,6,3,01/08/2011,31/12/2099,0,,
W0C/RG-131,USA - Colorado,CO-Rio Grande,10807,3294,10807,-106.6777,37.5759,-106.6777,37.5759,6,3,01/08/2011,31/12/2099,0,,
